address,storey_range,floor_area_sqm,lease_commence_date,remaining_lease,resale_price,sold_year,sold_month,latitude,longitude,raffles_place_dist,one_north_dist,jurong_east_dist,orchard_dist,changi_dist,raffles_place_drive,one_north_drive,jurong_east_drive,orchard_drive,changi_drive,mrt_dist,near_bus_itc,near_mrt_itc,bus_u300m,bus_dist,mall_u1km,mall_dist,pri_u1km,pri_u2km,pri_aff_u1km,pri_aff_u2km,pri_elite_u1km,pri_elite_u2km,sec_u1km,sec_u2km,sec_aff_u1km,sec_aff_u2km,sec_elite_u1km,sec_elite_u2km,dist_to_highway,dist_to_exits,price_per_sqft,unit_price,elem_price,hex_id,town,town_min_unit_price,town_max_unit_price,appeal_score
1 BEACH RD,8.0,68.6,1979.0,60.084,343200.0,2018.2,5.7,1.303671351,103.86447870000003,12.480000000000002,32.980000000000004,48.10000000000001,18.5,33.38,8.78,20.95,27.6,9.8,25.98,403.0,0.0,0.0,6.0,51.0,4.0,676.0,1.0,2.0,0.0,0.0,0.0,0.0,0.0,1.0,0.0,1.0,0.0,1.0,936.0,819.0,5004.491255961844,83.24889433179081,13.636091383196113,8181.0,KALLANG/WHAMPOA,62.7371318203751,116.18999089089591,0.38373555443225904
1 BEDOK STH AVE 1,7.5,61.0,1976.0,56.5225,287666.66666666674,2018.083333333333,5.916666666666668,1.3208520870000002,103.93372109999996,30.75,55.23000000000001,67.27999999999999,39.63,20.7,19.28,30.17000000000001,33.62,20.6,16.270000000000003,590.0,0.0,0.0,4.0,171.0,4.0,463.0,1.0,8.0,0.0,0.0,0.0,3.0,1.0,10.0,0.0,1.0,0.0,1.0,1151.0,975.0,4706.551985833545,83.20068805313036,15.24992638761062,6856.0,BEDOK,51.11977742401701,99.51279256079034,0.6629244021775245
1 CHAI CHEE RD,6.5,127.5,1983.0,63.75,516666.66666666674,2018.5,5.333333333333333,1.327968792,103.92271600000002,26.6,49.22,61.07999999999999,36.22,20.73,21.77,29.7,31.87,18.23,19.45,867.0,0.0,0.0,7.0,44.0,3.0,795.0,2.0,8.0,0.0,0.0,0.0,2.0,1.0,4.0,0.0,0.0,0.0,0.0,530.0,246.0,4058.577047207605,63.67174047378547,11.337489139758606,6741.0,BEDOK,51.11977742401701,99.51279256079034,0.25937551140991744
1 DELTA AVE,9.5,119.0,1983.0,63.93166666666667,782333.3333333335,2018.0,7.0,1.292075251,103.82858409999999,15.57,24.15,35.77,25.9,49.22,7.88,13.1,22.52,8.47,33.03,723.0,0.0,0.0,6.0,163.0,2.0,390.0,3.0,7.0,0.0,0.0,0.0,0.0,1.0,6.0,0.0,0.0,0.0,0.0,1078.0,1082.0,6574.229691876751,102.94124737278506,21.713072264130396,9405.0,BUKIT MERAH,61.931118440609815,155.90058143249632,0.4364197434619386
1 DOVER RD,7.625,67.0,1975.0,56.5,338350.0,2017.5,7.125,1.302525747,103.78327320000002,20.12,18.3,26.45,25.020000000000003,53.77,14.72,3.3000000000000003,16.27,17.819999999999997,37.77,559.0,0.0,0.0,3.0,50.0,3.0,467.0,1.0,3.0,0.0,0.0,0.0,0.0,1.0,3.0,0.0,0.0,0.0,0.0,440.0,526.0,5049.430979978925,89.33072535975808,15.673102251540605,8370.0,QUEENSTOWN,68.01878290104968,119.67382701379316,0.4125820202997498
1 EVERTON PK,7.0,94.0,1980.0,61.91333333333333,541666.6666666665,2017.666666666667,4.0,1.277426543,103.8400012,8.47,23.98,34.7,18.83,42.12,6.22,14.72,23.12,11.48,30.55,488.0,0.0,1.0,7.0,98.0,3.0,498.0,1.0,6.0,0.0,0.0,0.0,0.0,0.0,2.0,0.0,0.0,0.0,0.0,484.0,681.0,5862.520128824476,94.68470468352292,15.740621051567528,9558.0,BUKIT MERAH,61.931118440609815,155.90058143249632,0.34855563924783856
1 GHIM MOH RD,7.7857142857142865,66.57142857142857,1976.0,57.138571428571424,329876.85714285716,2018.0,5.785714285714287,1.3128797569999997,103.78685500000003,24.07999999999999,16.97,30.680000000000003,29.82,57.73000000000001,17.47,5.200000000000001,17.020000000000003,16.63,40.25,760.0,0.0,0.0,4.0,128.0,3.0,679.0,1.0,2.0,0.0,0.0,0.0,0.0,0.0,2.0,0.0,0.0,0.0,0.0,1514.0,1597.0,4961.483632157317,86.75977192661342,16.889070535349607,8280.0,QUEENSTOWN,68.01878290104968,119.67382701379316,0.362810435020813
1 HAIG RD,8.9,59.9,1982.0,63.1,309300.0,2018.3,6.6,1.3112909120000005,103.89770339999998,23.920000000000005,48.17000000000001,58.0,32.029999999999994,34.93,14.98,25.88000000000001,28.88000000000001,15.25,20.5,974.0,0.0,0.0,3.0,221.0,4.0,521.0,2.0,7.0,0.0,0.0,0.0,1.0,2.0,7.0,0.0,0.0,0.0,0.0,1273.0,1183.0,5162.28813559322,81.81656811870505,12.786120910245971,7890.0,GEYLANG,56.60567349092167,112.03927730253292,0.45479443684487003
1 HOUGANG AVE 3,9.3125,61.0625,1975.0,55.69250000000001,230312.5,2018.4375,5.6875,1.3641309730000006,103.89300129999998,27.37,47.22000000000001,60.62,32.07,44.38,21.32,29.62,32.17000000000001,17.78,25.38,870.0,0.0,0.0,4.0,47.0,2.0,744.0,2.0,8.0,0.0,0.0,0.0,0.0,2.0,8.0,0.0,0.0,0.0,1.0,1110.0,669.0,3772.926755447942,67.69564122938714,9.10012750229607,3732.0,HOUGANG,41.786204315828854,81.1839872703508,0.6576369270186175
1 JLN BT MERAH,8.0,64.0,1983.0,63.01333333333333,306833.33333333326,2018.833333333333,6.166666666666668,1.28645354,103.80824240000004,22.9,23.12,33.03,26.77,50.55,11.65,9.93,19.1,13.0,34.27,897.0,0.0,0.0,5.0,19.0,3.0,333.0,1.0,7.0,0.0,0.0,0.0,0.0,2.0,6.0,0.0,0.0,0.0,0.0,272.0,630.0,4794.270833333333,75.99974027447455,14.287482089417553,9445.0,BUKIT MERAH,61.931118440609815,155.90058143249632,0.14971482634820893
1 KG KAYU RD,2.75,62.0,1984.0,65.5425,302750.0,2018.0,3.5,1.303557697,103.88379640000001,16.98,45.05,53.38,24.93,30.73,11.78,24.45,27.42,13.7,22.32,283.0,0.0,0.0,4.0,78.0,1.0,828.0,1.0,3.0,0.0,0.0,0.0,0.0,4.0,7.0,1.0,1.0,1.0,1.0,553.0,683.0,4883.064516129032,74.45819235624762,31.036829954386306,8191.0,KALLANG/WHAMPOA,62.7371318203751,116.18999089089591,0.21927845843397878
1 LOR 7 TOA PAYOH,5.9230769230769225,67.0,1969.0,49.92307692307693,249692.3076923077,2018.0769230769226,6.230769230769233,1.3394303349999996,103.85344280000002,21.0,32.27999999999999,48.26999999999999,16.97,50.95,16.42000000000001,21.42000000000001,24.15,12.28,27.37,803.0,0.0,0.0,7.0,62.0,1.0,611.0,4.0,11.0,0.0,1.0,1.0,2.0,2.0,9.0,0.0,2.0,0.0,3.0,781.0,717.0,3726.750861079219,74.55727928382878,17.063345177455258,7194.0,TOA PAYOH,56.37677727790368,108.7945572173222,0.34683845876221936
1 LOR LEW LIAN,8.6,67.0,1978.0,58.61666666666667,328392.53333333327,2018.4,5.7333333333333325,1.3508671260000005,103.87534389999998,21.680000000000003,34.38,46.52999999999999,23.050000000000008,37.3,19.92000000000001,28.22000000000001,30.77999999999999,16.38,29.38,271.0,1.0,1.0,9.0,72.0,2.0,387.0,1.0,8.0,0.0,0.0,0.0,0.0,2.0,9.0,0.0,1.0,0.0,2.0,1647.0,1594.0,4902.937100456621,83.67878233871417,13.062029326977436,3189.0,SERANGOON,48.00287255069534,95.38608760737254,0.7529229442397537
1 MARINE TER,14.9,120.2,1975.0,55.408,816700.0,2018.1,7.1,1.304829022,103.91861500000002,36.48,58.88000000000001,69.0,47.92000000000001,40.47000000000001,16.400000000000002,27.300000000000004,33.63,19.6,18.430000000000003,1898.0,0.0,0.0,7.0,167.0,0.0,1503.0,2.0,5.0,0.0,0.0,0.0,0.0,2.0,4.0,0.0,1.0,0.0,1.0,89.0,227.0,6793.139222096002,122.59891874247828,9.003483907243854,9240.0,MARINE PARADE,86.8716606367701,129.4042026670952,0.839998184924737
1 MARSILING DR,4.647058823529412,66.94117647058823,1974.0,54.43529411764707,217787.5294117647,2018.6470588235293,6.1764705882352935,1.4406710989999996,103.77573989999998,55.37,50.67999999999999,37.17,51.33000000000001,74.68000000000005,35.60000000000001,31.300000000000008,26.35000000000001,28.230000000000004,43.17999999999999,901.0,0.0,0.0,8.0,88.0,1.0,912.0,1.0,6.0,0.0,0.0,0.0,0.0,2.0,4.0,0.0,0.0,0.0,0.0,810.0,728.0,3259.5437961419398,59.8286171456006,19.025137710200703,550.0,WOODLANDS,38.19691376194177,63.43683209530688,0.8570433191562068
1 PINE CL,7.666666666666668,99.55555555555556,2000.0,81.00777777777779,696333.3333333335,2018.0,6.0,1.307870562,103.88319219999997,18.37,44.98,54.77,24.87,30.67000000000001,12.45,25.53,28.180000000000003,14.430000000000005,23.62,203.0,0.0,0.0,3.0,202.0,1.0,970.0,1.0,4.0,0.0,0.0,0.0,0.0,4.0,7.0,1.0,1.0,1.0,1.0,612.0,621.0,6980.1448828956445,86.16517231027571,18.84337310029712,7913.0,GEYLANG,56.60567349092167,112.03927730253292,0.5332415139345935
1 QUEEN'S RD,14.6,122.2,1974.0,54.582,884000.0,2018.2,7.0,1.317266295,103.8067829,17.78,13.85,24.93,14.77,51.28,15.38,8.48,19.35,10.43,34.45,134.0,0.0,0.0,4.0,119.0,0.0,2341.0,1.0,2.0,1.0,1.0,1.0,1.0,1.0,5.0,0.0,3.0,0.0,3.0,1764.0,1599.0,7237.263414634145,132.61672694801229,10.93016901026336,6464.0,BUKIT TIMAH,85.9095509320905,132.61672694801229,1.0
1 SAINT GEORGE'S RD,7.571428571428571,82.0,1976.0,56.55357142857143,395142.85714285716,2018.2857142857144,7.142857142857142,1.3234026370000005,103.86163080000004,18.5,40.52999999999999,56.5,22.550000000000008,42.76999999999999,15.319999999999995,23.6,26.17000000000001,11.77,27.27,619.0,0.0,0.0,4.0,17.0,0.0,1167.0,3.0,6.0,0.0,0.0,0.0,1.0,2.0,4.0,0.0,1.0,0.0,1.0,251.0,423.0,4818.815331010453,85.19271533664265,13.670195924274035,8000.0,KALLANG/WHAMPOA,62.7371318203751,116.18999089089591,0.42010070006997585
1 TECK WHYE AVE,7.0,89.16666666666669,1984.0,65.24833333333332,278500.0,2017.833333333333,9.5,1.3825388289999998,103.75171090000002,49.43,37.57,24.7,36.25,66.35000000000001,32.800000000000004,26.95,13.92,25.430000000000003,44.97,906.0,0.0,0.0,4.0,96.0,4.0,289.0,3.0,11.0,0.0,0.0,0.0,1.0,2.0,8.0,0.0,0.0,0.0,0.0,648.0,619.0,3174.494085422017,48.66793352400722,7.5271340243587375,1715.0,CHOA CHU KANG,38.237492386353885,61.43536358576746,0.4496292374412789
1 TELOK BLANGAH CRES,8.25,70.66666666666667,1983.0,63.65999999999999,312000.0,2018.166666666667,6.083333333333332,1.279456601,103.8178976,16.28,23.98,35.02,30.92000000000001,49.93,11.75,14.400000000000004,22.800000000000008,13.099999999999996,34.2,1117.0,0.0,0.0,6.0,63.0,0.0,1292.0,4.0,7.0,0.0,0.0,0.0,0.0,2.0,5.0,0.0,0.0,0.0,0.0,62.0,213.0,4416.325416325416,69.36732821426409,12.760714646109975,9526.0,BUKIT MERAH,61.931118440609815,155.90058143249632,0.07913432233082286
1 TG PAGAR PLAZA,14.0,63.4,1977.0,57.399,460750.0,2018.3,6.0,1.275687028,103.84243360000002,11.17,29.779999999999994,39.78,28.48,45.47000000000001,5.3500000000000005,14.919999999999998,23.300000000000004,11.42,29.4,497.0,0.0,0.0,9.0,91.0,3.0,168.0,1.0,1.0,0.0,0.0,0.0,0.0,0.0,1.0,0.0,0.0,0.0,0.0,302.0,518.0,7288.619854721549,126.94340604333428,11.843211426937525,9143.0,CENTRAL AREA,69.68701931804624,135.79697807701396,0.8660780886891914
1 TOH YI DR,7.625,116.0,1988.0,69.05125,778500.0,2018.0,6.5,1.3395717529999998,103.7746782,28.32999999999999,29.82,23.12,23.270000000000003,52.89999999999999,24.33,15.849999999999998,9.88,16.97,36.5,241.0,1.0,0.0,6.0,91.0,3.0,305.0,2.0,3.0,0.0,1.0,1.0,2.0,0.0,3.0,0.0,1.0,0.0,2.0,318.0,273.0,6695.248463114754,96.99996098489105,19.97508462953011,6105.0,BUKIT TIMAH,85.9095509320905,132.61672694801229,0.23744552762128013
10 CHAI CHEE RD,8.545454545454545,97.72727272727272,2001.0,81.97818181818181,529353.4545454546,2017.6363636363642,6.909090909090909,1.3272757240000002,103.92480359999999,22.699999999999992,45.32999999999999,57.33,32.97000000000001,18.13,20.57,28.480000000000004,30.65,17.069999999999997,18.329999999999995,635.0,0.0,0.0,8.0,36.0,4.0,550.0,3.0,8.0,0.0,0.0,0.0,2.0,1.0,5.0,0.0,0.0,0.0,0.0,681.0,422.0,5427.842951251646,66.22522468544531,10.06531887004967,6768.0,BEDOK,51.11977742401701,99.51279256079034,0.31214106454693363
10 EUNOS CRES,8.0,91.5,1978.0,58.845714285714294,464214.2857142858,2018.0714285714291,8.214285714285714,1.322286559,103.9027205,19.88,42.22000000000001,54.51999999999999,28.27,25.47,17.979999999999997,26.62,28.77999999999999,15.150000000000004,20.1,308.0,1.0,0.0,0.0,301.0,1.0,962.0,2.0,6.0,0.0,0.0,1.0,1.0,1.0,3.0,0.0,0.0,0.0,0.0,291.0,307.0,5074.235547061634,86.18093035938595,17.639155336742835,7791.0,GEYLANG,56.60567349092167,112.03927730253292,0.5335257828261453
10 GLOUCESTER RD,7.666666666666668,72.55555555555556,1976.0,57.0188888888889,410444.44444444455,2018.4444444444448,5.777777777777778,1.3139165869999998,103.85220979999998,16.099999999999998,32.12,46.63,17.63,41.98,10.95,20.58,25.08,6.25,28.78,182.0,0.0,0.0,4.0,155.0,3.0,477.0,2.0,5.0,0.0,0.0,0.0,0.0,0.0,1.0,0.0,0.0,0.0,0.0,441.0,426.0,5684.404066623404,99.70029699224865,17.622115778767224,8073.0,KALLANG/WHAMPOA,62.7371318203751,116.18999089089591,0.6915095995727326
10 HAIG RD,6.5,66.375,1976.0,56.9475,332500.0,2018.0,7.75,1.3103135190000001,103.8976563,23.0,46.92000000000001,62.68,29.82,33.68,14.269999999999998,25.300000000000004,28.75,15.12,19.72,944.0,0.0,0.0,3.0,140.0,6.0,601.0,2.0,6.0,0.0,0.0,0.0,1.0,4.0,7.0,0.0,0.0,0.0,0.0,1221.0,1085.0,5016.573886639676,88.0233514919289,16.85450225858,7905.0,GEYLANG,56.60567349092167,112.03927730253292,0.5667623217819083
10 HOLLAND AVE,6.0,88.0,1975.0,55.33333333333334,541666.6666666665,2018.333333333333,5.0,1.308149971,103.7942752,18.02,12.58,24.83,22.18,51.67,14.85,3.7000000000000006,16.33,15.02,40.03,399.0,0.0,0.0,8.0,56.0,2.0,664.0,0.0,4.0,0.0,1.0,0.0,1.0,0.0,2.0,0.0,0.0,0.0,0.0,1532.0,1446.0,6155.303030303031,111.26472896112855,29.09021617658173,8324.0,QUEENSTOWN,68.01878290104968,119.67382701379316,0.837206642698616
10 JLN BATU,6.333333333333332,132.11111111111111,1986.0,66.44333333333333,759111.1111111111,2018.2222222222226,5.0,1.360310013,103.762805,35.07999999999999,36.57,26.85,30.9,62.77,27.800000000000004,19.7,8.65,22.0,41.55,515.0,0.0,0.0,6.0,163.0,2.0,394.0,1.0,7.0,0.0,0.0,0.0,0.0,0.0,5.0,0.0,0.0,0.0,0.0,1730.0,1665.0,5743.884410033025,86.42849321013777,16.790032017366222,4049.0,KALLANG/WHAMPOA,62.7371318203751,116.18999089089591,0.4432197229807008
10 JLN BT HO SWEE,6.5,34.0,1971.0,52.585,206000.0,2017.5,6.0,1.28745837,103.83267579999999,16.65,28.35,39.93,21.35,50.3,6.88,15.08,23.6,8.57,32.03,659.0,0.0,0.0,6.0,122.0,2.0,623.0,2.0,8.0,0.0,0.0,0.0,0.0,1.0,4.0,0.0,0.0,0.0,0.0,500.0,484.0,6058.823529411765,115.13768871745279,18.533310145909468,9440.0,BUKIT MERAH,61.931118440609815,155.90058143249632,0.5662112837809548
10 JLN KUKOH,5.0,53.5,1971.0,51.79,224000.0,2018.5,2.5,1.286837933,103.83867409999999,14.97,27.03,40.25,23.08,42.63,3.72,13.35,21.75,8.12,28.87,557.0,0.0,0.0,4.0,86.0,3.0,529.0,1.0,4.0,0.0,0.0,0.0,0.0,1.0,3.0,0.0,1.0,0.0,1.0,44.0,142.0,4190.076869322153,80.78522970430377,16.15704594086075,9071.0,CENTRAL AREA,69.68701931804624,135.79697807701396,0.1678750160277793
10 JOO SENG RD,12.875,119.0,1983.0,63.79375,537236.0,2017.875,8.125,1.334866323,103.88001209999996,23.2,45.07,59.27999999999999,25.180000000000003,35.30000000000001,15.38,23.680000000000003,26.23,11.87,24.770000000000003,855.0,0.0,0.0,4.0,189.0,0.0,1349.0,3.0,7.0,0.0,0.0,0.0,0.0,4.0,9.0,1.0,1.0,1.0,2.0,657.0,798.0,4514.588235294117,70.7302141208078,8.864512548362246,7288.0,TOA PAYOH,56.37677727790368,108.7945572173222,0.27382763748279704
10 LOR 7 TOA PAYOH,13.25,112.0,1998.0,78.96000000000002,640250.0,2018.25,4.5,1.337171643,103.8577935,26.05,37.2,61.97,22.02,56.43,17.68,22.5,24.67,12.8,27.3,1240.0,0.0,0.0,9.0,121.0,1.0,954.0,2.0,12.0,0.0,0.0,1.0,1.0,1.0,10.0,0.0,2.0,0.0,2.0,421.0,398.0,5699.519230769231,72.16570839668051,12.360322532261224,7249.0,TOA PAYOH,56.37677727790368,108.7945572173222,0.3012132741414227
10 MARSILING DR,7.625,125.25,1976.0,56.59500000000001,330250.0,2018.25,5.125,1.4408056740000001,103.77731859999996,52.47000000000001,49.98,37.72,48.43,71.77999999999999,37.0,32.7,27.75,28.42000000000001,43.37,969.0,0.0,0.0,9.0,58.0,1.0,854.0,1.0,8.0,0.0,0.0,0.0,0.0,2.0,5.0,0.0,0.0,0.0,0.0,957.0,885.0,2635.5255516840884,46.53610521992741,9.918312177524331,551.0,WOODLANDS,38.19691376194177,63.43683209530688,0.33039692711532687
10 PINE CL,8.0,70.33333333333333,1981.0,61.89000000000001,416481.33333333326,2018.333333333333,4.333333333333333,1.309152394,103.8822425,18.03,42.62,54.62,28.329999999999995,32.28,12.03,25.12,27.75,14.2,23.38,363.0,0.0,0.0,4.0,186.0,1.0,994.0,2.0,4.0,0.0,0.0,0.0,0.0,2.0,7.0,0.0,1.0,0.0,1.0,537.0,546.0,5953.156862745098,96.12457297498405,18.6865911032862,7897.0,GEYLANG,56.60567349092167,112.03927730253292,0.7129051111013038
10 SAINT GEORGE'S RD,3.5,104.0,1985.0,65.17,486500.0,2018.5,5.0,1.323746488,103.8634122,18.07,40.1,56.07,22.12,41.88,13.7,21.98,24.55,10.15,25.65,715.0,0.0,0.0,5.0,138.0,0.0,1019.0,3.0,6.0,0.0,0.0,0.0,1.0,2.0,4.0,0.0,1.0,0.0,1.0,349.0,415.0,4677.884615384615,71.78564755474353,25.24078737156652,8001.0,KALLANG/WHAMPOA,62.7371318203751,116.18999089089591,0.16928029466918976
10 SELEGIE RD,5.0,56.66666666666666,1974.0,54.25,349333.33333333326,2018.333333333333,6.0,1.303708794,103.8505372,10.13,26.67,44.23,13.42,36.73,7.23,18.53,24.98,4.87,25.77,235.0,0.0,0.0,4.0,82.0,9.0,270.0,2.0,4.0,0.0,0.0,0.0,0.0,1.0,1.0,1.0,1.0,1.0,1.0,767.0,769.0,6163.6382623224745,113.66141681025069,30.4788351941298,8936.0,CENTRAL AREA,69.68701931804624,135.79697807701396,0.665170547943193
10 TECK WHYE AVE,6.5,68.5,1978.0,59.242,248688.8,2017.7,5.9,1.380470551,103.7552111,44.13,35.35000000000001,21.48,36.95,66.16999999999999,32.550000000000004,26.72,13.680000000000005,25.12,44.64999999999999,763.0,0.0,0.0,6.0,123.0,3.0,309.0,3.0,11.0,0.0,0.0,0.0,1.0,3.0,10.0,0.0,0.0,0.0,0.0,816.0,605.0,3640.786603567528,61.43536358576746,13.072972444672027,1732.0,CHOA CHU KANG,38.237492386353885,61.43536358576746,1.0
10 TELOK BLANGAH CRES,5.75,62.25,1975.0,55.395,264500.0,2018.5,5.5,1.277731532,103.8197694,18.43,30.48,41.85,37.08,52.08,10.87,13.53,21.93,12.22,33.32,1201.0,0.0,0.0,5.0,29.0,0.0,1272.0,3.0,7.0,0.0,0.0,0.0,0.0,1.0,5.0,0.0,0.0,0.0,0.0,132.0,130.0,4230.579096045198,76.34590426446894,18.61859725310395,9547.0,BUKIT MERAH,61.931118440609815,155.90058143249632,0.153398618709822
10 TOH YI DR,5.0,147.6,1989.0,69.798,989800.0,2018.2,6.4,1.337539566,103.7731611,31.63000000000001,33.12,25.7,27.45,59.32000000000001,25.78,17.3,10.9,18.42,37.95,518.0,0.0,0.0,0.0,309.0,3.0,587.0,2.0,3.0,0.0,1.0,1.0,2.0,0.0,3.0,0.0,1.0,0.0,2.0,272.0,289.0,6709.500088952143,96.1376628637496,19.227532572749922,6129.0,BUKIT TIMAH,85.9095509320905,132.61672694801229,0.21898373663551157
100 BEDOK NTH AVE 4,7.0625,72.625,1978.0,59.1825,289937.5,2018.1875,6.75,1.3343559340000002,103.93903270000004,31.550000000000008,54.41999999999999,67.63,42.79999999999999,22.680000000000003,23.680000000000003,31.42000000000001,33.77,20.15,17.72,722.0,0.0,0.0,4.0,101.0,1.0,850.0,4.0,11.0,0.0,0.0,2.0,4.0,3.0,11.0,0.0,0.0,0.0,0.0,67.0,109.0,3995.7381867175263,67.48499873179709,13.27954271063676,6647.0,BEDOK,51.11977742401701,99.51279256079034,0.33817321077281515
100 C'WEALTH CRES,5.75,59.625,1970.0,51.12375,279000.0,2018.0,4.625,1.3077052759999999,103.8012725,20.78,20.85,32.15,24.62,54.43,15.78,7.799999999999999,20.42,12.68,37.7,684.0,0.0,0.0,4.0,171.0,0.0,1431.0,1.0,4.0,0.0,1.0,0.0,1.0,1.0,3.0,0.0,0.0,0.0,0.0,1992.0,1910.0,4670.890066779654,91.37923087801217,22.016762587272314,8328.0,QUEENSTOWN,68.01878290104968,119.67382701379316,0.45223943524228616
100 LOR 1 TOA PAYOH,10.142857142857142,68.71428571428571,1970.0,50.52428571428572,289542.85714285716,2018.0714285714291,5.928571428571429,1.339564005,103.84858570000004,20.67000000000001,31.25,46.51999999999999,16.63,44.55,18.35,21.1,23.67000000000001,11.78,28.92000000000001,294.0,0.0,0.0,8.0,139.0,2.0,427.0,5.0,9.0,0.0,1.0,1.0,2.0,2.0,8.0,0.0,2.0,0.0,3.0,975.0,891.0,4213.434604611075,83.31099519671452,9.338332984092588,7192.0,TOA PAYOH,56.37677727790368,108.7945572173222,0.5138374412258564
100 WHAMPOA DR,18.5,91.0,1974.0,54.1025,380472.0,2018.5,8.0,1.320779477,103.8543487,21.92,41.6,51.78,16.82,42.48,12.15,20.45,24.57,8.62,29.57,774.0,0.0,0.0,4.0,163.0,0.0,1069.0,2.0,9.0,0.0,0.0,0.0,1.0,1.0,3.0,0.0,0.0,0.0,0.0,52.0,36.0,4181.010989010989,77.27403789325444,11.368947441561374,8013.0,KALLANG/WHAMPOA,62.7371318203751,116.18999089089591,0.2719575028475218
101 AH HOOD RD,11.857142857142858,118.0,1981.0,62.66571428571428,654428.5714285715,2017.2857142857144,9.571428571428571,1.32739679,103.844481,19.95,29.7,53.75,18.97,50.32999999999999,13.569999999999995,18.73,20.9,7.420000000000001,29.28,660.0,0.0,0.0,7.0,107.0,5.0,165.0,1.0,11.0,0.0,1.0,0.0,2.0,1.0,10.0,0.0,3.0,0.0,4.0,217.0,207.0,5546.004842615012,88.4798648264489,12.19778133129635,7944.0,KALLANG/WHAMPOA,62.7371318203751,116.18999089089591,0.4815969333298187
101 ALJUNIED CRES,8.0,74.85714285714286,1978.0,57.847142857142856,316571.4285714286,2018.7142857142856,6.571428571428571,1.3209227529999998,103.88335200000004,15.37,39.23,49.73,26.87,29.5,13.900000000000002,25.72,27.95,14.150000000000002,22.63,502.0,0.0,0.0,4.0,198.0,0.0,1052.0,3.0,5.0,0.0,0.0,0.0,0.0,1.0,6.0,0.0,1.0,0.0,1.0,53.0,274.0,4232.529218775084,73.1814480819894,13.23011652709306,7781.0,GEYLANG,56.60567349092167,112.03927730253292,0.2990203315555633
101 ANG MO KIO AVE 3,6.125,113.5,1978.0,58.01125,492361.0,2018.75,5.25,1.370261584,103.83946790000002,28.92000000000001,39.32999999999999,56.7,24.88,54.62,20.17,24.22,27.95,16.680000000000003,33.67000000000001,1167.0,0.0,0.0,4.0,36.0,1.0,747.0,3.0,9.0,1.0,2.0,1.0,2.0,5.0,12.0,1.0,2.0,2.0,4.0,1990.0,1879.0,4342.661000672237,74.83178702618531,15.134989872124095,2868.0,ANG MO KIO,48.941092721124754,93.79298471217095,0.5772486545323244
101 BEDOK NTH AVE 4,7.25,45.0,1978.0,59.2925,220750.0,2017.75,5.75,1.3344846670000001,103.9379247,32.12,54.52,69.63,43.37,22.0,22.85,30.77,32.93,19.3,16.88,601.0,0.0,0.0,2.0,151.0,1.0,972.0,4.0,10.0,0.0,0.0,2.0,3.0,3.0,11.0,0.0,0.0,0.0,0.0,45.0,60.0,4905.555555555556,82.69780946750562,12.825411203795738,6646.0,BEDOK,51.11977742401701,99.51279256079034,0.6525328490948439
101 BEDOK RESERVOIR RD,5.375,115.75,1985.0,66.0525,418125.0,2018.125,5.125,1.3284491329999997,103.9099374,33.43,57.92000000000001,70.38,42.32,34.98,20.83,28.75,30.92000000000001,17.22,21.550000000000004,766.0,0.0,0.0,1.0,259.0,0.0,1995.0,3.0,6.0,0.0,0.0,1.0,1.0,1.0,2.0,0.0,0.0,0.0,0.0,56.0,161.0,3630.161346941518,54.9437976704957,11.90082312200328,6735.0,BEDOK,51.11977742401701,99.51279256079034,0.07902008659040666
101 BISHAN ST 12,15.0,128.0,1987.0,67.515,795666.6666666665,2018.0,6.833333333333332,1.3448591580000002,103.8484008,27.77,35.12,48.37,23.73,48.85,17.98,22.02,25.75,14.43,31.28,475.0,0.0,0.0,7.0,102.0,2.0,598.0,4.0,10.0,0.0,1.0,0.0,2.0,4.0,8.0,1.0,2.0,1.0,3.0,1076.0,1085.0,6222.261657286756,92.13884619401891,11.799381243136153,5057.0,BISHAN,60.269202437554405,104.71884134318148,0.7169831868404669
101 BT BATOK WEST AVE 6,6.5,124.3,1985.0,65.65100000000001,469288.8,2018.2,8.0,1.3467063609999996,103.7469207,35.52999999999999,28.4,8.03,36.88,69.18000000000002,25.82999999999999,17.729999999999997,3.7,24.13,43.67000000000001,464.0,1.0,0.0,8.0,87.0,1.0,452.0,3.0,8.0,0.0,0.0,0.0,0.0,3.0,5.0,0.0,0.0,0.0,0.0,344.0,327.0,3769.860269339375,57.4125017930517,13.899729788474849,4180.0,BUKIT BATOK,45.388244408445615,75.4522795519283,0.3999548738956527
101 BT PURMEI RD,5.75,77.5,1983.0,64.36,407708.33333333326,2017.75,6.833333333333332,1.2714625659999998,103.82568349999998,17.849999999999994,31.0,43.53,33.64999999999999,51.88,9.07,12.8,21.2,12.45,31.77999999999999,773.0,0.0,0.0,7.0,101.0,1.0,896.0,3.0,7.0,0.0,0.0,0.0,0.0,1.0,2.0,0.0,0.0,0.0,0.0,489.0,446.0,5207.457368618464,80.9229436742186,19.084055687600163,9639.0,BUKIT MERAH,61.931118440609815,155.90058143249632,0.2021063506050745
101 C'WEALTH CRES,6.5,49.0,1970.0,50.42,223000.0,2018.5,7.5,1.308051592,103.8008428,21.62,21.68,29.63,25.45,55.27,16.1,8.12,20.75,12.85,37.85,631.0,0.0,0.0,3.0,200.0,0.0,1386.0,1.0,4.0,0.0,1.0,0.0,1.0,1.0,4.0,0.0,1.0,0.0,1.0,1998.0,1897.0,4561.945031712474,90.5053259521737,14.607102757518824,8328.0,QUEENSTOWN,68.01878290104968,119.67382701379316,0.4353213405847527
101 CLEMENTI ST 14,9.2,117.8,1984.0,65.9,696200.0,2017.6,5.0,1.3220893679999999,103.76893340000001,31.0,23.88,31.329999999999995,32.77,64.65,19.67,10.73,14.37,20.15,41.25,863.0,0.0,0.0,3.0,218.0,2.0,879.0,3.0,7.0,0.0,0.0,1.0,2.0,0.0,4.0,0.0,0.0,0.0,0.0,1015.0,946.0,5873.172377195186,89.20500902322632,11.410771919048955,7485.0,CLEMENTI,59.93213531102735,107.87813994082994,0.6105383324057695
101 GANGSA RD,6.5,145.0,1987.0,68.21000000000001,607500.0,2018.0,7.0,1.379164316,103.76743929999999,36.93,38.42,32.33,33.63,64.62,29.08,24.37,14.32,21.47,41.02,613.0,0.0,0.0,9.0,61.0,5.0,357.0,5.0,8.0,0.0,0.0,0.0,1.0,2.0,7.0,0.0,0.0,0.0,0.0,839.0,911.0,4192.113774733638,61.43782215810614,17.13646250572858,3334.0,BUKIT PANJANG,41.18990670299474,70.64784749753744,0.6873499949073993
101 HENDERSON CRES,5.5,74.0,1970.0,51.07,407650.0,2018.0,6.166666666666668,1.2907179979999999,103.8216252,13.019999999999998,21.62,32.72,29.12,46.67000000000001,9.93,13.230000000000002,22.75,10.83,34.12,505.0,0.0,0.0,6.0,129.0,1.0,775.0,3.0,8.0,0.0,0.0,0.0,0.0,3.0,6.0,0.0,0.0,0.0,0.0,1072.0,1159.0,5508.783783783784,107.9092973790904,28.40646281134375,9401.0,BUKIT MERAH,61.931118440609815,155.90058143249632,0.48928851431715037
101 HOUGANG AVE 1,3.5,102.5,1984.0,65.105,378472.0,2017.75,5.0,1.354937478,103.89136059999998,36.37,44.22,56.63,32.88,37.48,21.8,30.7,33.2,18.67,25.98,947.0,0.0,0.0,8.0,121.0,1.0,858.0,2.0,3.0,0.0,0.0,0.0,0.0,2.0,5.0,0.0,0.0,1.0,1.0,848.0,1118.0,3692.067961165049,56.72242172046413,22.631074596210947,3828.0,HOUGANG,41.786204315828854,81.1839872703508,0.3791131450690159
101 JLN RAJAH,7.571428571428571,94.0,1980.0,61.40428571428572,437428.5714285714,2018.142857142857,5.7142857142857135,1.3288008619999998,103.850782,25.32,35.73,58.98,21.28,52.57999999999999,13.069999999999995,20.02,22.17,8.68,30.48,523.0,0.0,0.0,4.0,55.0,4.0,513.0,0.0,11.0,0.0,0.0,0.0,1.0,1.0,5.0,0.0,0.0,0.0,0.0,62.0,203.0,4653.4954407294845,75.80495137644864,17.022205079589305,7947.0,KALLANG/WHAMPOA,62.7371318203751,116.18999089089591,0.2444737247605981
101 JURONG EAST ST 13,6.0,68.0,1983.0,63.647777777777776,310098.66666666674,2018.2222222222226,5.0,1.3370110079999995,103.7387873,30.27,23.15,8.97,32.93,63.92000000000001,23.32,15.220000000000002,3.2,23.6,43.14999999999999,545.0,0.0,0.0,7.0,76.0,3.0,447.0,2.0,5.0,0.0,0.0,0.0,0.0,0.0,5.0,0.0,0.0,0.0,0.0,806.0,791.0,4560.274509803921,71.6292723743283,18.281881877629647,5591.0,JURONG EAST,45.015845577643326,82.06217412908822,0.7183823023036646
101 PASIR RIS ST 12,6.384615384615384,146.69230769230768,1988.0,69.48692307692308,616000.0,2018.0,5.230769230769232,1.3670502149999997,103.9581819,40.47000000000001,63.51999999999999,73.98,51.76999999999999,25.48,29.82,38.22000000000001,40.38,26.75,14.02,1176.0,0.0,0.0,6.0,136.0,1.0,716.0,3.0,9.0,0.0,0.0,0.0,0.0,5.0,8.0,0.0,0.0,0.0,0.0,309.0,310.0,4199.659125465874,60.465050170443966,13.524176615671266,2482.0,PASIR RIS,43.50398179749715,71.55825353538319,0.6045805976150739
101 POTONG PASIR AVE 1,10.727272727272727,76.45454545454545,1984.0,65.19818181818181,424772.7272727273,2017.909090909091,7.8181818181818175,1.3331571009999996,103.8683804,16.88,33.529999999999994,48.8,20.930000000000003,37.63,13.370000000000005,21.670000000000005,24.219999999999995,9.75,24.829999999999995,75.0,0.0,0.0,8.0,44.0,1.0,189.0,2.0,11.0,0.0,0.0,0.0,1.0,3.0,8.0,1.0,1.0,1.0,1.0,454.0,435.0,5569.728545632161,85.46567204453832,11.08195125632226,7310.0,TOA PAYOH,56.37677727790368,108.7945572173222,0.554943280700822
101 RIVERVALE WALK,10.333333333333334,109.22222222222223,1999.0,78.75777777777779,394876.44444444455,2019.0,5.8888888888888875,1.38276429,103.899272,35.25,47.7,68.45,37.48,47.67000000000001,24.08,33.300000000000004,35.47,21.9,24.37,646.0,0.0,0.0,8.0,26.0,1.0,407.0,5.0,15.0,0.0,0.0,0.0,0.0,3.0,9.0,0.0,0.0,0.0,0.0,1269.0,1153.0,3617.186358635864,45.930232673174345,6.445077377534418,2061.0,SENGKANG,41.178724969218116,67.75428524303348,0.1787923812329873
101 SERANGOON NTH AVE 1,8.25,91.33333333333331,1985.0,65.86166666666666,357898.0,2018.0,4.833333333333333,1.37103632,103.8703609,32.37,42.78,62.02999999999998,28.32999999999999,52.54999999999999,19.75,28.03,31.52999999999999,16.199999999999996,31.850000000000005,1998.0,0.0,0.0,5.0,32.0,1.0,881.0,1.0,6.0,0.0,0.0,1.0,1.0,2.0,5.0,0.0,0.0,0.0,0.0,950.0,836.0,3918.962621607783,59.51107060709521,12.585150998888507,3076.0,SERANGOON,48.00287255069534,95.38608760737254,0.24287499365829007
101 SIMEI ST 1,8.0,113.0,1988.0,69.25999999999999,513375.0,2018.0,6.0,1.3408499109999996,103.95143370000002,29.9,52.77,63.64999999999999,38.78,16.02,25.1,33.02,35.18,21.550000000000004,15.930000000000005,332.0,0.0,0.0,6.0,51.0,1.0,265.0,2.0,10.0,0.0,0.0,0.0,1.0,1.0,9.0,0.0,0.0,0.0,0.0,335.0,302.0,4530.649038461538,65.41118190232487,10.459882979936383,4580.0,TAMPINES,45.923453241354,83.46135467326172,0.5191480588311748
101 TAMPINES ST 11,6.8,81.4,1982.0,62.0,333800.0,2018.6,8.0,1.347400346,103.9452949,35.28,57.17999999999999,68.53,49.75,23.87,25.77,33.7,35.87,22.23,14.82,683.0,0.0,0.0,3.0,70.0,4.0,576.0,6.0,13.0,0.0,0.0,1.0,2.0,2.0,11.0,0.0,0.0,0.0,0.0,544.0,266.0,4093.383177570093,66.02786133954768,14.12092329872118,4495.0,TAMPINES,45.923453241354,83.46135467326172,0.5355762397816055
101 TECK WHYE LANE,11.0,142.0,1989.0,69.36333333333334,554333.3333333335,2018.666666666667,3.6666666666666665,1.3778896459999999,103.75423990000002,37.48,38.97,27.28,34.18,65.17,31.67,25.83,13.449999999999998,24.3,43.83000000000001,863.0,0.0,0.0,7.0,100.0,3.0,310.0,3.0,11.0,0.0,0.0,0.0,1.0,2.0,11.0,0.0,0.0,0.0,0.0,1078.0,879.0,3903.7558685446006,56.27420588546795,5.392448319072173,1763.0,CHOA CHU KANG,38.237492386353885,61.43536358576746,0.7775158911809985
101 TOWNER RD,3.125,78.0,1983.0,63.55125,431760.0,2018.125,8.875,1.31942539,103.86108749999997,13.37,30.020000000000003,43.89999999999999,15.53,38.9,11.900000000000002,21.87,25.08,10.019999999999998,26.2,173.0,0.0,0.0,5.0,108.0,0.0,1005.0,2.0,6.0,0.0,0.0,0.0,0.0,1.0,2.0,0.0,0.0,0.0,0.0,497.0,535.0,5551.711711711711,87.390541986653,33.58810152545171,8031.0,KALLANG/WHAMPOA,62.7371318203751,116.18999089089591,0.4612178019093881
101 WHAMPOA DR,15.5,91.0,1974.0,55.04,404000.0,2017.5,9.0,1.320417102,103.8538139,20.78,40.47,50.65,15.68,40.13,12.33,20.62,24.75,8.78,29.73,814.0,0.0,0.0,4.0,124.0,0.0,1047.0,3.0,8.0,0.0,0.0,0.0,1.0,1.0,3.0,0.0,0.0,0.0,0.0,54.0,39.0,4439.560439560441,80.64289046333752,5.26532180938172,8027.0,KALLANG/WHAMPOA,62.7371318203751,116.18999089089591,0.3349822433134812
101 WOODLANDS ST 13,4.538461538461538,80.46153846153847,1985.0,66.16076923076922,300675.07692307694,2017.6153846153845,7.0769230769230775,1.4359826849999997,103.78193269999998,46.82000000000001,45.57000000000001,33.77999999999999,42.77999999999999,72.33000000000001,35.52,31.22000000000001,26.27,28.149999999999995,42.22000000000001,601.0,0.0,0.0,4.0,76.0,2.0,366.0,5.0,9.0,0.0,0.0,0.0,0.0,4.0,7.0,0.0,0.0,0.0,0.0,938.0,882.0,3771.69503420699,56.98678424642858,17.533819957649506,620.0,WOODLANDS,38.19691376194177,63.43683209530688,0.744450526198737
101 YISHUN AVE 5,3.875,72.0625,1978.0,58.66125,247156.25,2018.1875,8.125,1.4311322900000003,103.82836709999998,41.62,50.95000000000001,53.350000000000016,37.58,63.41999999999999,32.18,37.8,36.0,28.63,38.38,739.0,0.0,0.0,6.0,96.0,1.0,925.0,3.0,9.0,0.0,0.0,0.0,0.0,2.0,5.0,0.0,0.0,0.0,0.0,2810.0,2553.0,3448.474996341821,58.76874917744071,18.095737816382453,828.0,YISHUN,40.766577486899415,70.08375596020441,0.614048575886432
101A LOR 2 TOA PAYOH,10.25,145.25,1993.0,74.4175,919944.0,2017.0,8.0,1.339741267,103.8472642,17.55,30.82,52.85,13.52,41.43,17.5,20.1,22.27,10.38,27.5,176.0,0.0,0.0,8.0,75.0,2.0,495.0,6.0,9.0,0.0,1.0,1.0,2.0,4.0,8.0,1.0,2.0,1.0,3.0,988.0,881.0,6334.403589985829,85.1299528223649,9.883914856638157,7191.0,TOA PAYOH,56.37677727790368,108.7945572173222,0.5485385985002131
101A PUNGGOL FIELD,8.3,104.0,2002.0,82.684,400500.0,2018.5,7.2,1.3979461680000005,103.90594509999997,35.89999999999999,48.35000000000001,67.0,38.13,38.98,26.9,36.12,38.28,24.75,21.45,882.0,0.0,0.0,6.0,104.0,3.0,657.0,9.0,16.0,0.0,0.0,1.0,1.0,5.0,6.0,0.0,0.0,0.0,0.0,212.0,186.0,3865.151515151516,46.7515556784719,7.8024022149457375,1548.0,PUNGGOL,41.920667046761714,68.81382560879811,0.17963262368629654
101B PUNGGOL FIELD,6.8,109.6,2002.0,83.566,421977.6,2017.6,7.2,1.397847151,103.9064361,34.93,47.38,66.03,37.17,38.95,26.63000000000001,35.85,38.02,24.5,21.22,916.0,0.0,0.0,8.0,83.0,3.0,663.0,8.0,16.0,0.0,0.0,1.0,1.0,5.0,6.0,0.0,0.0,0.0,0.0,233.0,212.0,3849.974705111402,46.07285177223566,10.090487925067027,1548.0,PUNGGOL,41.920667046761714,68.81382560879811,0.154395576700141
101C PUNGGOL FIELD,12.0,109.83333333333331,2002.0,83.07000000000002,419166.66666666674,2018.166666666667,6.166666666666668,1.3980904580000002,103.9065693,34.0,46.45,65.10000000000001,36.23,39.67000000000001,26.88,36.12,38.28,24.62,21.32,899.0,0.0,0.0,8.0,54.0,3.0,693.0,8.0,16.0,0.0,0.0,1.0,1.0,5.0,6.0,0.0,0.0,0.0,0.0,260.0,239.0,3816.622483021565,45.94634939056507,4.5989114076128805,1548.0,PUNGGOL,41.920667046761714,68.81382560879811,0.14969168959893722
101D PUNGGOL FIELD,11.0,102.72727272727272,2002.0,83.10545454545455,416554.54545454547,2018.1818181818185,5.7272727272727275,1.3984847850000002,103.90614389999998,34.7,47.149999999999984,65.79999999999998,36.93,40.75,26.42000000000001,35.63,37.8,24.170000000000005,20.87,838.0,0.0,0.0,9.0,57.0,4.0,721.0,8.0,16.0,0.0,0.0,1.0,1.0,5.0,6.0,0.0,0.0,0.0,0.0,268.0,214.0,4059.733700642792,48.86703747796589,5.044826112162283,1548.0,PUNGGOL,41.920667046761714,68.81382560879811,0.25829507587145173
102 ALJUNIED CRES,8.666666666666666,69.77777777777777,1978.0,58.03666666666667,308333.33333333326,2018.4444444444448,7.222222222222222,1.32043903,103.8824204,13.069999999999995,35.55000000000001,46.87,22.680000000000003,27.2,14.150000000000002,25.97,28.2,14.400000000000002,22.88,439.0,0.0,0.0,3.0,86.0,0.0,1143.0,3.0,6.0,0.0,0.0,0.0,0.0,1.0,6.0,0.0,1.0,0.0,1.0,62.0,229.0,4430.744826591679,76.3352095434247,9.637249667453164,7797.0,GEYLANG,56.60567349092167,112.03927730253292,0.35591292457825796
102 ANG MO KIO AVE 3,6.0,117.5,1993.0,73.30666666666667,527666.6666666665,2018.5,6.166666666666668,1.3706500980000005,103.8394103,28.07,38.48,60.85,24.03,55.25,20.180000000000003,24.23,27.97,16.67,33.67000000000001,1178.0,0.0,0.0,3.0,79.0,1.0,743.0,3.0,8.0,1.0,2.0,1.0,2.0,5.0,12.0,1.0,2.0,2.0,4.0,1986.0,1872.0,4470.263961698184,60.94115523779397,13.075797136675865,2868.0,ANG MO KIO,48.941092721124754,93.79298471217095,0.2675486358315675
102 BEDOK NTH AVE 4,7.181818181818183,71.0,1977.0,57.65909090909091,287909.0909090909,2018.2727272727273,8.090909090909092,1.333906548,103.93745839999998,30.72000000000001,53.58,66.79999999999998,41.97000000000001,21.0,22.930000000000003,30.85,33.02,19.38,16.97,580.0,0.0,0.0,4.0,160.0,0.0,1004.0,4.0,10.0,0.0,0.0,2.0,3.0,3.0,12.0,0.0,0.0,0.0,0.0,104.0,104.0,4053.187090743213,70.3048804057065,13.625390070286588,6646.0,BEDOK,51.11977742401701,99.51279256079034,0.39644363814626077
102 BEDOK RESERVOIR RD,2.0,74.25,1985.0,65.7525,301500.0,2018.0,7.5,1.328491877,103.90926520000001,34.9,59.38,70.38,43.78,36.0,20.7,28.62,30.78,17.17,21.5,759.0,0.0,0.0,0.0,331.0,0.0,1934.0,3.0,7.0,0.0,0.0,1.0,1.0,1.0,2.0,0.0,0.0,0.0,0.0,93.0,130.0,4062.655472636816,61.775539694132966,30.887769847066487,6734.0,BEDOK,51.11977742401701,99.51279256079034,0.22019215459089586
102 BISHAN ST 12,10.0,121.0,1987.0,66.91666666666667,718666.6666666665,2018.666666666667,6.666666666666668,1.3451431230000004,103.84799079999999,26.98,34.33,47.58000000000001,22.95,48.07,18.0,22.03,25.77,14.449999999999998,31.3,484.0,0.0,0.0,7.0,99.0,2.0,569.0,4.0,10.0,0.0,1.0,0.0,2.0,4.0,8.0,1.0,2.0,1.0,3.0,1106.0,1119.0,5939.393939393939,88.76957675685145,9.429938824574577,5057.0,BISHAN,60.269202437554405,104.71884134318148,0.6411834836230594
102 BT BATOK WEST AVE 6,5.333333333333333,129.66666666666666,1985.0,65.87888888888888,480111.11111111107,2018.0,8.666666666666666,1.347329959,103.7473436,35.07999999999999,28.65,9.3,38.15,68.73,26.57,18.47,4.420000000000001,24.53,44.07,383.0,1.0,0.0,7.0,53.0,1.0,368.0,3.0,9.0,0.0,0.0,0.0,0.0,3.0,6.0,0.0,0.0,0.0,0.0,419.0,402.0,3710.3822836910704,56.27339530179407,17.800529161707466,4180.0,BUKIT BATOK,45.388244408445615,75.4522795519283,0.3620655325008209
102 BT PURMEI RD,5.0,90.5,1984.0,64.83,430000.0,2018.0,6.0,1.271908423,103.8266717,15.43,30.92,41.67,33.42,49.65,9.45,13.18,21.58,12.9,32.25,882.0,0.0,0.0,6.0,54.0,1.0,995.0,3.0,5.0,0.0,0.0,0.0,0.0,1.0,3.0,0.0,0.0,0.0,0.0,391.0,369.0,4766.795704295704,73.5190213031198,22.83530585361311,9640.0,BUKIT MERAH,61.931118440609815,155.90058143249632,0.12331562290092586
102 C'WEALTH CRES,4.666666666666667,63.0,1970.0,50.31555555555556,275333.33333333326,2018.666666666667,7.777777777777778,1.3078246490000005,103.8006298,22.430000000000003,22.2,30.18,26.270000000000003,56.07999999999999,15.970000000000002,7.980000000000002,20.62,12.88,37.88,626.0,0.0,0.0,4.0,199.0,0.0,1361.0,1.0,4.0,0.0,1.0,0.0,1.0,1.0,3.0,0.0,0.0,0.0,0.0,1968.0,1866.0,4365.661915767848,86.70689073462034,23.93649362490889,8327.0,QUEENSTOWN,68.01878290104968,119.67382701379316,0.361786697786601
102 GANGSA RD,5.75,80.5,1988.0,69.105,305000.0,2017.25,8.75,1.379107628,103.7681538,38.05,39.53,32.45,34.75,65.73,29.42,24.72,14.65,22.05,41.58,693.0,0.0,0.0,9.0,130.0,5.0,436.0,4.0,8.0,0.0,0.0,0.0,1.0,2.0,7.0,0.0,0.0,0.0,0.0,770.0,840.0,3818.9918872190447,55.27091518250468,9.986279074208992,3335.0,BUKIT PANJANG,41.18990670299474,70.64784749753744,0.4780038284997351
102 HENDERSON CRES,10.0,80.0,1970.0,50.84499999999999,446648.0,2018.333333333333,5.0,1.290366187,103.8215771,13.769999999999998,22.37,33.47,29.87,47.42000000000001,9.92,13.230000000000002,22.73,10.6,33.87,491.0,0.0,0.0,6.0,136.0,1.0,756.0,3.0,8.0,0.0,0.0,0.0,0.0,3.0,6.0,0.0,0.0,0.0,0.0,1039.0,1126.0,5583.0999999999985,109.7186546677451,16.887418015766276,9417.0,BUKIT MERAH,61.931118440609815,155.90058143249632,0.5085432512396219
102 HOUGANG AVE 1,9.8,103.4,1984.0,63.68600000000002,393560.0,2018.6,9.8,1.3549644630000002,103.8908551,29.07,42.6,55.42999999999999,31.68,38.4,21.38,30.28,32.77,18.43,25.75,899.0,0.0,0.0,8.0,141.0,1.0,811.0,2.0,3.0,0.0,0.0,0.0,0.0,2.0,5.0,0.0,0.0,1.0,1.0,896.0,1153.0,3806.966685703408,59.77608283203507,6.8033581609452645,3828.0,HOUGANG,41.786204315828854,81.1839872703508,0.45662159561040483
102 JLN DUSUN,6.5,118.0,1981.0,62.72749999999999,602750.0,2017.75,6.25,1.327868743,103.84420959999999,19.43,30.67,52.53,17.75,49.82,13.48,18.63,20.8,7.3,29.15,635.0,0.0,0.0,7.0,147.0,5.0,201.0,1.0,11.0,0.0,1.0,0.0,2.0,1.0,11.0,0.0,3.0,0.0,4.0,169.0,159.0,5108.050847457627,81.4284315100073,19.27870482415085,7944.0,KALLANG/WHAMPOA,62.7371318203751,116.18999089089591,0.3496782027126484
102 JLN RAJAH,5.0,94.0,1981.0,61.3323076923077,447615.3846153846,2018.3076923076928,6.461538461538463,1.328223064,103.85151979999999,22.57,32.77,44.649999999999984,21.430000000000003,46.92999999999999,13.47,20.4,22.57,9.08,30.88,625.0,0.0,0.0,4.0,56.0,4.0,570.0,1.0,11.0,0.0,0.0,0.0,1.0,0.0,5.0,0.0,0.0,0.0,0.0,114.0,198.0,4761.865793780687,77.64949407413769,20.961484970217846,7948.0,KALLANG/WHAMPOA,62.7371318203751,116.18999089089591,0.27898156456118817
102 JURONG EAST ST 13,6.090909090909091,68.0,1982.0,62.66,317090.9090909091,2018.1818181818185,7.363636363636362,1.3360965789999997,103.7382192,29.87,22.75,10.47,32.529999999999994,63.51999999999999,23.280000000000005,15.180000000000005,3.18,23.57,43.100000000000016,532.0,0.0,0.0,9.0,79.0,3.0,386.0,2.0,4.0,0.0,0.0,0.0,0.0,0.0,5.0,0.0,0.0,0.0,0.0,871.0,886.0,4663.101604278075,74.4435224211676,19.187793805325843,5591.0,JURONG EAST,45.015845577643326,82.06217412908822,0.7943479959872171
102 LENGKONG TIGA,11.0,122.5,1989.0,69.56500000000001,800750.0,2018.5,6.25,1.325579307,103.9106575,24.5,48.98,64.95,35.75,26.05,20.4,28.87,31.03,17.4,20.75,576.0,0.0,0.0,2.0,52.0,0.0,1918.0,2.0,7.0,0.0,0.0,1.0,1.0,0.0,2.0,0.0,0.0,0.0,0.0,211.0,244.0,6523.204752581241,93.75703151307457,8.83503922460258,6787.0,BEDOK,51.11977742401701,99.51279256079034,0.8810621526381802
102 PASIR RIS ST 12,7.5,109.83333333333331,1988.0,68.89,409666.66666666674,2018.5,7.666666666666668,1.3674842730000003,103.9580411,39.4,62.45,72.92,50.7,23.98,30.680000000000003,39.07999999999999,41.23,27.62,14.87,1136.0,0.0,0.0,4.0,97.0,1.0,738.0,3.0,8.0,0.0,0.0,0.0,0.0,5.0,8.0,0.0,0.0,0.0,0.0,341.0,346.0,3725.5950121818328,54.077582888468726,12.76495916445996,2482.0,PASIR RIS,43.50398179749715,71.55825353538319,0.3768980777602009
102 POTONG PASIR AVE 1,7.1,77.0,1984.0,64.61699999999999,403100.0,2018.2,6.3,1.3336901270000003,103.86881059999999,17.849999999999994,34.5,49.77,21.9,37.10000000000001,13.349999999999998,21.65,24.2,9.82,24.9,99.0,0.0,0.0,7.0,79.0,1.0,253.0,2.0,11.0,0.0,0.0,0.0,1.0,3.0,8.0,1.0,1.0,1.0,1.0,519.0,490.0,5264.08523908524,81.45590926842769,21.144833426882503,7310.0,TOA PAYOH,56.37677727790368,108.7945572173222,0.4784470463935909
102 RIVERVALE WALK,6.666666666666668,141.44444444444446,1999.0,79.24999999999999,561222.2222222221,2018.4444444444448,6.8888888888888875,1.3821513900000002,103.9000751,36.82999999999999,49.28,67.05,37.18,49.23,24.38,33.6,35.77,22.13,24.63,737.0,0.0,0.0,7.0,89.0,1.0,408.0,4.0,15.0,0.0,0.0,0.0,0.0,3.0,8.0,0.0,0.0,0.0,0.0,1169.0,1053.0,3966.903347478465,50.07227721609024,13.637997036308622,2077.0,SENGKANG,41.178724969218116,67.75428524303348,0.33465154281751325
102 SERANGOON NTH AVE 1,3.0,73.0,1984.0,64.39,282629.33333333326,2019.0,5.666666666666668,1.3708432730000002,103.8711536,34.23,45.23,65.67,30.2,48.43,20.02,28.320000000000004,31.8,14.15,31.149999999999995,1916.0,0.0,0.0,5.0,80.0,1.0,928.0,1.0,6.0,0.0,0.0,1.0,1.0,2.0,6.0,0.0,0.0,0.0,0.0,1026.0,912.0,3869.042681330191,60.10610950258319,24.24241330204925,3076.0,SERANGOON,48.00287255069534,95.38608760737254,0.2554330038054745
102 SIMEI ST 1,5.0,111.5,1988.0,69.395,493458.0,2017.875,7.75,1.34134725,103.9513551,30.28,53.14999999999999,64.02999999999999,39.17000000000001,14.75,24.300000000000004,32.23,34.38,20.77,15.150000000000002,310.0,0.0,0.0,6.0,78.0,1.0,235.0,2.0,10.0,0.0,0.0,0.0,1.0,1.0,9.0,0.0,0.0,0.0,0.0,291.0,280.0,4420.963164013241,63.68726205984976,17.594379611778976,4580.0,TAMPINES,45.923453241354,83.46135467326172,0.4732232794291554
102 TAMPINES ST 11,5.25,84.0,1983.0,64.41583333333334,351000.0,2017.833333333333,7.166666666666668,1.3467161630000002,103.94552139999998,37.10000000000001,59.0,70.35000000000001,51.73000000000001,24.579999999999995,25.35,33.27,35.43,21.670000000000005,14.25,760.0,0.0,0.0,3.0,137.0,5.0,656.0,5.0,13.0,0.0,0.0,1.0,2.0,2.0,11.0,0.0,0.0,0.0,0.0,477.0,224.0,4217.058860358789,65.43479404580425,17.985430837986918,4517.0,TAMPINES,45.923453241354,83.46135467326172,0.5197770802356402
102 TECK WHYE LANE,6.285714285714287,111.57142857142857,1989.0,69.55857142857144,347714.2857142857,2018.2857142857144,6.142857142857142,1.377082841,103.7543944,36.07999999999999,37.57,25.88,32.78,63.77,31.98,26.15,13.769999999999998,24.62,44.17000000000001,864.0,0.0,0.0,5.0,103.0,3.0,393.0,3.0,10.0,0.0,0.0,0.0,1.0,2.0,10.0,0.0,0.0,0.0,0.0,1158.0,953.0,3116.19748176352,44.810972448259676,8.795391921013548,1763.0,CHOA CHU KANG,38.237492386353885,61.43536358576746,0.28336565908995837
102 TOWNER RD,5.0,74.0,1984.0,65.33,408000.0,2017.0,9.0,1.320586095,103.862002,12.68,29.33,43.22,14.85,38.57,12.75,21.68,24.23,9.83,25.35,331.0,0.0,0.0,1.0,59.0,0.0,1167.0,2.0,7.0,0.0,0.0,0.0,1.0,1.0,2.0,0.0,0.0,0.0,0.0,482.0,584.0,5513.513513513513,84.39481882004459,16.87896376400892,8017.0,KALLANG/WHAMPOA,62.7371318203751,116.18999089089591,0.4051735936350256
102 WOODLANDS ST 13,7.142857142857142,77.71428571428571,1985.0,65.13,288285.71428571426,2018.5714285714291,7.571428571428571,1.4360829489999998,103.7811996,47.21999999999999,45.96999999999999,34.18,43.18,74.07000000000002,35.67000000000001,31.35,26.4,28.28,42.37,679.0,0.0,0.0,4.0,65.0,2.0,328.0,3.0,9.0,0.0,0.0,0.0,0.0,4.0,7.0,0.0,0.0,0.0,0.0,953.0,933.0,3749.4437749142494,57.565657141781465,11.221096839512628,619.0,WOODLANDS,38.19691376194177,63.43683209530688,0.767385342694861
102A PUNGGOL FIELD,10.5,106.66666666666669,2002.0,82.875,420000.0,2018.333333333333,8.5,1.398833183,103.90578359999999,34.27,46.72,65.37,36.5,41.43,26.329999999999995,35.57,37.73,24.12,20.82,785.0,0.0,0.0,9.0,93.0,4.0,750.0,8.0,16.0,0.0,0.0,1.0,1.0,5.0,6.0,0.0,0.0,0.0,0.0,276.0,193.0,3942.7609427609423,47.5824051093945,5.783245336233313,1548.0,PUNGGOL,41.920667046761714,68.81382560879811,0.21052707697284587
102B PUNGGOL FIELD,9.5,110.125,2002.0,83.33375000000002,421250.0,2018.25,4.125,1.3990852580000002,103.90547140000001,33.98,46.43,65.08,36.22,39.92000000000001,27.32999999999999,36.57,38.72,24.430000000000003,21.13,745.0,0.0,0.0,9.0,82.0,4.0,771.0,9.0,16.0,0.0,0.0,1.0,1.0,5.0,6.0,0.0,0.0,0.0,0.0,280.0,182.0,3827.7777984630047,45.930073551334345,8.291519975365722,1548.0,PUNGGOL,41.920667046761714,68.81382560879811,0.1490864858928282
102C PUNGGOL FIELD,9.8,110.5,2002.0,83.624,416100.0,2017.8,6.2,1.398761278,103.90493899999998,35.63,48.07999999999999,67.83000000000001,39.98,40.89999999999999,27.43,36.64999999999999,38.82,25.0,21.7,756.0,0.0,0.0,7.0,28.0,2.0,729.0,9.0,16.0,0.0,0.0,1.0,1.0,5.0,7.0,0.0,0.0,0.0,0.0,223.0,120.0,3764.7669188609552,45.028263571251316,7.843894028914492,1547.0,PUNGGOL,41.920667046761714,68.81382560879811,0.11555342290200249
102D PUNGGOL FIELD,8.666666666666666,103.33333333333331,2002.0,83.77888888888889,396666.66666666674,2017.555555555556,7.444444444444445,1.3984807080000001,103.9052498,35.75,48.2,66.85000000000001,37.98,40.95,27.85,37.07999999999999,39.23,25.42,22.12,797.0,0.0,0.0,8.0,75.0,3.0,702.0,9.0,16.0,0.0,0.0,1.0,1.0,5.0,7.0,0.0,0.0,0.0,0.0,217.0,130.0,3849.607182940516,45.95296818128102,8.405232654353265,1547.0,PUNGGOL,41.920667046761714,68.81382560879811,0.14993780389230618
103 AH HOOD RD,17.6,118.8,1981.0,61.484,656777.6,2018.6,7.0,1.327962675,103.84482699999998,19.47,30.5,54.33,19.55,46.13,13.05,18.2,20.37,7.17,29.02,587.0,0.0,0.0,7.0,118.0,5.0,222.0,1.0,10.0,0.0,1.0,0.0,2.0,1.0,9.0,0.0,2.0,0.0,2.0,162.0,152.0,5530.902139483189,89.96110836366856,7.031134091784898,7944.0,KALLANG/WHAMPOA,62.7371318203751,116.18999089089591,0.5093081458444839
103 ANG MO KIO AVE 3,6.7142857142857135,83.28571428571429,1978.0,58.154285714285706,344000.0,2018.5714285714291,5.285714285714286,1.3710165780000003,103.8393048,30.800000000000004,41.21999999999999,60.47000000000001,26.770000000000003,55.64999999999999,19.930000000000003,23.98,27.72,17.92,34.92000000000001,1195.0,0.0,0.0,3.0,122.0,1.0,748.0,3.0,8.0,1.0,2.0,1.0,2.0,5.0,12.0,1.0,2.0,2.0,4.0,1987.0,1872.0,4140.070611980724,71.14047452725092,14.04813406674768,2868.0,ANG MO KIO,48.941092721124754,93.79298471217095,0.49494861466619594
103 BEDOK NTH AVE 4,8.642857142857142,75.71428571428571,1977.0,57.588571428571434,307785.71428571426,2018.428571428572,6.857142857142858,1.3334825909999994,103.93754250000003,31.680000000000003,54.54999999999999,67.77,42.92999999999999,19.9,22.930000000000003,30.850000000000005,33.02,19.38,16.97,611.0,0.0,0.0,4.0,144.0,1.0,985.0,4.0,10.0,0.0,0.0,2.0,4.0,3.0,12.0,0.0,0.0,0.0,0.0,146.0,146.0,4063.460937171653,70.54051073218442,13.188734080411086,6673.0,BEDOK,51.11977742401701,99.51279256079034,0.40131273600701517
103 BEDOK RESERVOIR RD,4.0,75.83333333333333,1985.0,65.375,304133.33333333326,2018.666666666667,5.666666666666668,1.328770222,103.90938140000002,27.0,49.8,62.5,40.73,35.0,20.63,28.55,30.72,17.08,21.42,728.0,0.0,0.0,0.0,307.0,0.0,1962.0,3.0,6.0,0.0,0.0,1.0,1.0,1.0,2.0,0.0,0.0,0.0,0.0,111.0,160.0,4014.7906926433643,61.41731160855838,20.408939983882853,6735.0,BEDOK,51.11977742401701,99.51279256079034,0.2127896795733313
103 BISHAN ST 12,14.0,124.625,1986.0,67.4375,778836.0,2018.0,5.75,1.345512491,103.8483142,26.1,33.800000000000004,47.05,22.07,47.53,17.87,21.9,25.63,14.319999999999995,31.17000000000001,536.0,0.0,0.0,8.0,151.0,2.0,526.0,4.0,10.0,0.0,1.0,0.0,2.0,4.0,8.0,1.0,2.0,1.0,3.0,1063.0,1081.0,6246.922865013775,92.58082290146878,9.015545148417676,5057.0,BISHAN,60.269202437554405,104.71884134318148,0.7269265006295451
103 BT BATOK CTRL,6.0,118.0,1985.0,65.23666666666666,510666.66666666674,2018.333333333333,6.333333333333332,1.348454876,103.7483399,32.68,26.25,8.700000000000001,36.23,66.33,26.4,18.3,4.25,23.430000000000003,42.97,219.0,1.0,0.0,4.0,94.0,1.0,207.0,4.0,9.0,0.0,0.0,0.0,0.0,3.0,6.0,0.0,0.0,0.0,0.0,566.0,547.0,4313.7211961943685,66.10222347426588,14.285254814319039,4162.0,BUKIT BATOK,45.388244408445615,75.4522795519283,0.6889953050866716
103 BT PURMEI RD,5.0,71.42857142857143,1982.0,63.332857142857144,373142.85714285716,2018.142857142857,6.571428571428571,1.272085585,103.82549559999997,18.3,31.2,40.75,36.02,51.95,9.03,12.78,21.17,12.45,31.78,817.0,0.0,0.0,8.0,115.0,1.0,948.0,3.0,7.0,0.0,0.0,0.0,0.0,1.0,2.0,0.0,0.0,0.0,0.0,452.0,472.0,5224.6438697449785,82.48942827060625,24.56146285540997,9614.0,BUKIT MERAH,61.931118440609815,155.90058143249632,0.2187764958470762
103 CLEMENTI ST 14,5.75,121.0,1984.0,64.605,711250.0,2019.0,5.0,1.322588548,103.7691762,30.6,23.48,30.93,33.07,64.25,19.5,10.55,14.18,19.8,40.9,925.0,0.0,0.0,2.0,208.0,1.0,940.0,2.0,8.0,0.0,1.0,1.0,3.0,0.0,6.0,0.0,1.0,0.0,2.0,969.0,917.0,5878.099173553719,91.00219284767904,25.96342167846992,7474.0,CLEMENTI,59.93213531102735,107.87813994082994,0.648021827398293
103 GANGSA RD,2.0,64.0,1988.0,68.25,245000.0,2019.0,8.0,1.378670708,103.76853840000001,37.9,39.38,33.02,34.6,65.58,29.63,24.92,14.87,22.27,41.8,736.0,0.0,0.0,8.0,104.0,5.0,489.0,4.0,8.0,0.0,0.0,0.0,1.0,2.0,7.0,0.0,0.0,0.0,0.0,742.0,796.0,3828.125,56.089743589743605,28.044871794871803,3335.0,BUKIT PANJANG,41.18990670299474,70.64784749753744,0.5058003541615227
103 HENDERSON CRES,3.5,74.0,1970.0,51.92,449250.0,2017.0,8.0,1.289742097,103.8213757,13.22,23.02,34.12,30.82,46.87,9.97,13.27,22.78,10.82,34.1,459.0,0.0,0.0,7.0,138.0,1.0,738.0,3.0,8.0,0.0,0.0,0.0,0.0,2.0,6.0,0.0,0.0,0.0,0.0,976.0,1067.0,6070.945945945949,116.89490360504145,46.79117217614335,9417.0,BUKIT MERAH,61.931118440609815,155.90058143249632,0.5849111340476354
103 HOUGANG AVE 1,7.4,121.8,1983.0,64.46799999999999,490000.0,2018.2,4.6,1.3552822340000001,103.8903601,27.98,41.52,54.75,31.0,39.73,21.2,30.1,32.6,18.27,25.57,833.0,0.0,0.0,7.0,121.0,1.0,746.0,2.0,5.0,0.0,0.0,0.0,0.0,2.0,6.0,0.0,0.0,1.0,1.0,954.0,1210.0,4015.1964942041277,62.27318082060475,13.023727086038615,3828.0,HOUGANG,41.786204315828854,81.1839872703508,0.5200032836473218
103 JLN RAJAH,15.090909090909092,130.0909090909091,1984.0,64.6209090909091,648027.2727272727,2018.1818181818185,6.7272727272727275,1.3273414330000002,103.85278070000004,25.030000000000005,38.68,60.33,20.7,45.12,13.400000000000004,21.1,23.27000000000001,9.849999999999998,30.88,793.0,0.0,0.0,5.0,147.0,2.0,693.0,1.0,9.0,0.0,0.0,0.0,1.0,1.0,5.0,0.0,0.0,0.0,0.0,191.0,197.0,4966.562487119684,76.83119861855224,8.720028000391848,7964.0,KALLANG/WHAMPOA,62.7371318203751,116.18999089089591,0.2636728332825512
103 JURONG EAST ST 13,15.714285714285715,120.0,1982.0,62.798571428571435,618571.4285714285,2018.5714285714291,6.0,1.3366871499999995,103.73805919999998,31.07,23.95,10.75,33.73,64.72000000000001,23.270000000000003,15.17,3.1699999999999995,23.550000000000004,43.07999999999999,584.0,0.0,0.0,6.0,134.0,3.0,451.0,2.0,4.0,0.0,0.0,0.0,0.0,0.0,5.0,0.0,0.0,0.0,0.0,847.0,830.0,5154.761904761906,82.06217412908822,9.275702927810318,5591.0,JURONG EAST,45.015845577643326,82.06217412908822,1.0
103 LENGKONG TIGA,7.25,118.25,1989.0,68.9575,725750.0,2018.5,7.5,1.325855463,103.91059890000001,25.52,50.0,65.97,36.77,27.07,20.43,28.9,31.05,17.43,20.78,606.0,0.0,0.0,2.0,75.0,0.0,1924.0,2.0,7.0,0.0,0.0,1.0,1.0,1.0,2.0,0.0,0.0,0.0,0.0,184.0,222.0,6125.835310292074,88.84001021661699,13.613768432527866,6761.0,BEDOK,51.11977742401701,99.51279256079034,0.7794561402299726
103 PASIR RIS ST 12,8.0,110.7,1989.0,69.8,423200.0,2017.9,7.9,1.367695081,103.9584042,39.17000000000001,62.22000000000001,72.68000000000002,50.47000000000001,23.75,31.72000000000001,40.10000000000001,42.27,28.63000000000001,15.900000000000002,1159.0,0.0,0.0,7.0,61.0,1.0,702.0,3.0,8.0,0.0,0.0,0.0,0.0,4.0,8.0,0.0,0.0,0.0,0.0,376.0,378.0,3827.7354032248204,54.8283795112136,9.280435125151694,2465.0,PASIR RIS,43.50398179749715,71.55825353538319,0.4036603701397587
103 POTONG PASIR AVE 1,2.0,77.0,1984.0,63.33,386000.0,2019.0,10.5,1.334113387,103.8695237,17.95,34.6,49.87,22.0,36.73,13.82,22.12,24.67,10.25,25.33,157.0,0.0,0.0,6.0,80.0,1.0,322.0,2.0,11.0,0.0,0.0,0.0,1.0,3.0,8.0,1.0,1.0,1.0,1.0,582.0,544.0,5020.608108108108,79.27693207181599,39.638466035907996,7283.0,TOA PAYOH,56.37677727790368,108.7945572173222,0.4368776171058562
103 RIVERVALE WALK,7.0,141.77777777777774,1999.0,79.26,575777.7777777779,2018.4444444444448,7.0,1.3832150890000001,103.90065759999996,37.02,49.47,67.23,37.37,45.32999999999999,25.020000000000003,34.23,36.4,22.770000000000003,23.87,802.0,0.0,0.0,6.0,147.0,1.0,274.0,4.0,16.0,0.0,0.0,0.0,0.0,4.0,10.0,0.0,0.0,0.0,0.0,1182.0,1061.0,4062.91728842845,51.28862801943578,9.166986432967688,2062.0,SENGKANG,41.178724969218116,67.75428524303348,0.38042106905941125
103 SERANGOON NTH AVE 1,7.625,91.0,1985.0,65.98875,342750.0,2018.375,4.875,1.3706554869999998,103.8702689,34.17000000000001,45.17000000000001,65.60000000000001,30.13,53.5,19.75,28.03,31.53,16.2,31.85,1979.0,0.0,0.0,4.0,73.0,1.0,843.0,1.0,6.0,0.0,0.0,1.0,1.0,2.0,5.0,0.0,0.0,0.0,0.0,935.0,822.0,3766.4835164835167,57.113148274112255,13.520573176818955,3076.0,SERANGOON,48.00287255069534,95.38608760737254,0.19226799432076738
103 SPOTTISWOODE PK RD,14.0,121.2,1979.0,60.13199999999999,726337.6,2018.2,6.6,1.2746609690000001,103.8352798,16.12,35.38,38.73,27.12,47.08,6.27,15.85,24.25,12.75,30.23,858.0,0.0,0.0,4.0,155.0,1.0,910.0,1.0,5.0,0.0,0.0,0.0,0.0,0.0,2.0,0.0,0.0,0.0,0.0,222.0,229.0,5995.510182936121,99.69557379814215,7.8636247759802815,9597.0,BUKIT MERAH,61.931118440609815,155.90058143249632,0.40188008056184155
103 TAMPINES ST 11,3.6666666666666665,85.55555555555556,1982.0,62.56444444444442,345333.33333333326,2018.4444444444448,7.0,1.3476966249999998,103.94622990000002,35.22,57.11999999999999,68.47000000000001,50.27,25.47,25.78,33.72,35.88,22.25,14.7,662.0,0.0,0.0,3.0,71.0,5.0,569.0,5.0,12.0,0.0,0.0,1.0,1.0,2.0,12.0,0.0,0.0,0.0,0.0,509.0,345.0,4061.648635003065,64.90537718603147,23.195794007613877,4496.0,TAMPINES,45.923453241354,83.46135467326172,0.5056735518129573
103 TECK WHYE LANE,6.0,105.16666666666669,1989.0,69.16666666666667,310500.0,2018.666666666667,5.5,1.3771307819999998,103.753556,35.2,36.68,25.37,31.02,62.88,32.28,26.45,14.07,24.95,44.48,953.0,0.0,0.0,6.0,159.0,2.0,346.0,2.0,12.0,0.0,0.0,0.0,1.0,2.0,11.0,0.0,0.0,0.0,0.0,1159.0,971.0,2952.8276453752565,42.69902521657081,8.959183437632761,1763.0,CHOA CHU KANG,38.237492386353885,61.43536358576746,0.19232509706880813
103 TOWNER RD,8.0,125.6,1983.0,64.48400000000001,711000.0,2017.8,8.6,1.320643815,103.86163409999999,13.23,29.88000000000001,43.77,15.4,39.12,12.919999999999998,22.67,25.23,9.93,25.45,321.0,0.0,0.0,2.0,64.0,0.0,1153.0,2.0,7.0,0.0,0.0,0.0,1.0,1.0,2.0,0.0,0.0,0.0,0.0,452.0,547.0,5681.415098288822,88.15941509934515,11.761567809944266,8017.0,KALLANG/WHAMPOA,62.7371318203751,116.18999089089591,0.475601936379684
103 WOODLANDS ST 13,2.0,68.66666666666667,1985.0,66.02666666666666,281666.66666666674,2018.0,3.6666666666666665,1.4366212319999996,103.7809767,48.54999999999999,47.29999999999999,35.52,44.52,73.65,36.37,32.07,27.12,29.0,43.07,696.0,0.0,0.0,4.0,128.0,2.0,371.0,3.0,9.0,0.0,0.0,0.0,0.0,4.0,7.0,0.0,0.0,0.0,0.0,1009.0,990.0,4100.33167495854,62.11199270068493,31.055996350342465,598.0,WOODLANDS,38.19691376194177,63.43683209530688,0.9475101552578867
103 YISHUN RING RD,3.5,72.0,1985.0,64.97166666666666,262500.0,2018.666666666667,5.833333333333332,1.43136935,103.82889279999999,43.4,52.73,51.75,39.37,62.9,33.4,38.82999999999999,37.02,29.87,39.6,691.0,0.0,0.0,6.0,73.0,1.0,882.0,3.0,9.0,0.0,0.0,0.0,0.0,2.0,5.0,0.0,0.0,0.0,0.0,2866.0,2609.0,3659.446669093557,56.31449475371881,19.35693955221736,815.0,YISHUN,40.766577486899415,70.08375596020441,0.5303347073790434
103A DEPOT RD,17.333333333333332,95.55555555555556,2002.0,83.05444444444444,581444.4444444445,2017.888888888889,5.8888888888888875,1.2807019759999998,103.8133534,18.45,29.72,38.38,31.43,52.10000000000001,11.18,11.480000000000002,19.87,12.55,33.82,1068.0,0.0,0.0,2.0,95.0,0.0,1159.0,2.0,8.0,0.0,0.0,0.0,0.0,1.0,5.0,0.0,0.0,0.0,0.0,193.0,684.0,6098.148148148148,73.42907347895324,4.758990037014123,9504.0,BUKIT MERAH,61.931118440609815,155.90058143249632,0.12235842019589047
103A EDGEFIELD PLAINS,7.625,110.0,2003.0,83.43624999999999,422350.0,2018.625,4.375,1.3982553180000001,103.904754,38.07,50.52,68.93,41.38,39.63,27.63,36.85,39.02,25.4,22.12,802.0,0.0,0.0,6.0,69.0,2.0,672.0,9.0,17.0,0.0,0.0,1.0,1.0,5.0,8.0,0.0,0.0,0.0,0.0,170.0,75.0,3839.5454545454545,46.032141702016496,9.467965198216966,1547.0,PUNGGOL,41.920667046761714,68.81382560879811,0.15288180619507913
103B DEPOT RD,11.428571428571427,108.71428571428572,2002.0,82.79857142857144,612142.8571428572,2018.142857142857,6.142857142857142,1.2807369240000004,103.8131357,18.17,29.430000000000003,38.1,31.15,51.82,10.75,11.05,19.430000000000003,12.55,33.82,1075.0,0.0,0.0,2.0,77.0,0.0,1138.0,2.0,8.0,0.0,0.0,0.0,0.0,1.0,5.0,0.0,0.0,0.0,0.0,200.0,706.0,5628.903405440135,67.9823067745749,6.971406414760683,9504.0,BUKIT MERAH,61.931118440609815,155.90058143249632,0.06439526353883229
103B EDGEFIELD PLAINS,14.0,110.0,2003.0,84.03999999999998,419500.0,2017.5,11.0,1.397731275,103.9046854,38.27,50.72,69.13,41.58,38.85,28.0,37.22,39.38,25.77,22.47,856.0,0.0,0.0,6.0,98.0,1.0,613.0,8.0,17.0,0.0,0.0,1.0,1.0,5.0,8.0,0.0,0.0,0.0,0.0,123.0,62.0,3813.636363636364,45.37455843988509,3.409527707488098,1547.0,PUNGGOL,41.920667046761714,68.81382560879811,0.1284301130027563
103C EDGEFIELD PLAINS,6.5,110.0,2003.0,83.68875,400625.0,2018.25,5.75,1.3972666080000002,103.9045384,38.72,51.17000000000001,69.58,42.03,37.22,28.35,37.57999999999999,39.75,26.12,22.82,902.0,0.0,0.0,6.0,138.0,2.0,561.0,8.0,17.0,0.0,0.0,1.0,1.0,5.0,8.0,0.0,0.0,0.0,0.0,77.0,43.0,3642.0454545454545,43.525016056729726,9.599770504210325,1561.0,PUNGGOL,41.920667046761714,68.81382560879811,0.05965639946186102
104 BEDOK NTH AVE 4,6.666666666666668,74.44444444444444,1977.0,57.88777777777778,298111.11111111107,2018.4444444444448,4.333333333333333,1.333298521,103.93660150000002,31.63000000000001,54.07999999999999,67.58,42.88,20.1,23.17,31.07999999999999,33.25,19.62,17.2,538.0,0.0,0.0,7.0,229.0,0.0,1055.0,4.0,9.0,0.0,0.0,2.0,3.0,3.0,12.0,0.0,0.0,0.0,0.0,172.0,165.0,4010.18621010801,69.28068227129855,17.04135825339349,6672.0,BEDOK,51.11977742401701,99.51279256079034,0.3752794653516279
104 BEDOK RESERVOIR RD,9.0,121.66666666666669,1985.0,65.83333333333333,456666.66666666674,2018.333333333333,8.0,1.329245367,103.9099237,30.83,53.04999999999999,64.58,42.45,33.38,20.55,28.47,30.63,17.0,21.33,678.0,0.0,0.0,2.0,252.0,0.0,2042.0,3.0,6.0,0.0,0.0,1.0,1.0,1.0,2.0,0.0,0.0,0.0,0.0,126.0,226.0,3752.8276109207372,56.985739500826426,12.060637223469875,6709.0,BEDOK,51.11977742401701,99.51279256079034,0.12121505676450267
104 BISHAN ST 12,2.0,70.0,1985.0,66.25,410000.0,2018.0,8.0,1.345675021,103.8480329,26.0,33.05,46.3,21.97,46.78,17.23,21.27,25.0,13.68,30.53,542.0,0.0,0.0,7.0,157.0,2.0,510.0,3.0,10.0,0.0,1.0,0.0,2.0,4.0,8.0,1.0,2.0,1.0,3.0,1084.0,1107.0,5857.142857142857,88.40970350404312,44.20485175202156,5057.0,BISHAN,60.269202437554405,104.71884134318148,0.6330872816815231
104 BT BATOK CTRL,5.0,105.28571428571428,1985.0,65.36,433000.0,2018.5714285714291,4.857142857142857,1.3489950030000004,103.74725820000002,34.85,28.42000000000001,10.87,38.4,68.5,25.5,17.400000000000002,3.370000000000001,22.97,42.52,308.0,1.0,0.0,7.0,116.0,1.0,236.0,4.0,9.0,0.0,0.0,0.0,0.0,3.0,6.0,0.0,0.0,0.0,0.0,560.0,547.0,4115.512991681217,62.9396179786625,18.34154663486633,4162.0,BUKIT BATOK,45.388244408445615,75.4522795519283,0.5837996625021139
104 BT PURMEI RD,7.4,75.0,1984.0,64.884,361600.0,2017.8,8.0,1.2723985359999999,103.8256255,17.67,31.48,40.12,36.3,51.32000000000001,9.05,12.78,21.18,12.43,31.78,854.0,0.0,0.0,7.0,151.0,1.0,986.0,3.0,7.0,0.0,0.0,0.0,0.0,1.0,2.0,0.0,0.0,0.0,0.0,419.0,444.0,4821.333333333334,74.3111294632117,10.921625999707873,9614.0,BUKIT MERAH,61.931118440609815,155.90058143249632,0.13174504385186067
104 CLEMENTI ST 14,2.0,157.0,1984.0,65.0,820000.0,2018.0,7.0,1.322949685,103.7691892,30.43,23.32,30.77,33.7,64.08,19.33,10.4,14.03,19.82,40.9,960.0,0.0,0.0,2.0,227.0,1.0,975.0,2.0,8.0,0.0,1.0,1.0,3.0,0.0,6.0,0.0,1.0,0.0,2.0,933.0,888.0,5222.929936305734,80.35276825085742,40.17638412542871,7474.0,CLEMENTI,59.93213531102735,107.87813994082994,0.425908959411748
104 GANGSA RD,5.0,83.0,1988.0,69.04333333333334,308481.33333333326,2017.666666666667,6.833333333333332,1.378803995,103.76796879999999,36.92000000000001,38.4,33.32,33.62,64.60000000000001,29.2,24.48,14.43,21.83,41.37,672.0,0.0,0.0,8.0,104.0,5.0,424.0,4.0,8.0,0.0,0.0,0.0,1.0,2.0,7.0,0.0,0.0,0.0,0.0,795.0,854.0,3763.6091678858006,54.461507798219614,14.43922831671967,3335.0,BUKIT PANJANG,41.18990670299474,70.64784749753744,0.45052711551662616
104 HENDERSON CRES,6.5,74.0,1970.0,49.96,402000.0,2019.0,7.5,1.28903386,103.82148719999999,11.1,22.67,33.97,28.7,44.75,8.43,11.62,21.25,10.05,33.33,473.0,0.0,0.0,10.0,62.0,1.0,692.0,3.0,8.0,0.0,0.0,0.0,0.0,3.0,6.0,0.0,0.0,0.0,0.0,922.0,995.0,5432.4324324324325,108.73749137127596,18.784279230634137,9417.0,BUKIT MERAH,61.931118440609815,155.90058143249632,0.4981019518511828
104 JLN DUSUN,3.5,90.0,1981.0,61.79,488000.0,2018.0,9.0,1.328425305,103.84414240000001,18.9,29.55,51.27,16.48,45.78,13.53,18.7,20.85,7.35,29.22,593.0,0.0,0.0,5.0,104.0,5.0,260.0,1.0,11.0,0.0,1.0,0.0,2.0,1.0,12.0,0.0,4.0,0.0,5.0,113.0,103.0,5422.222222222223,87.75245985593544,30.72188198468236,7944.0,KALLANG/WHAMPOA,62.7371318203751,116.18999089089591,0.467988587898683
104 JLN RAJAH,6.0,115.0,1984.0,63.69666666666666,512666.66666666674,2019.0,4.666666666666667,1.32780497,103.8532623,26.12,39.77,61.42,21.8,57.77,13.73,21.45,23.62,10.05,31.08,798.0,0.0,0.0,5.0,77.0,3.0,752.0,1.0,9.0,0.0,0.0,0.0,1.0,1.0,5.0,0.0,0.0,0.0,0.0,141.0,139.0,4419.966939070103,69.43775962209125,11.989070709390269,7949.0,KALLANG/WHAMPOA,62.7371318203751,116.18999089089591,0.12535583537030182
104 JURONG EAST ST 13,3.5,76.0,1982.0,63.085,342500.0,2018.0,9.5,1.336584653,103.7376233,31.5,24.38,11.98,34.17,65.15,23.15,15.05,3.45,23.83,43.38,617.0,0.0,0.0,8.0,163.0,3.0,469.0,2.0,4.0,0.0,0.0,0.0,0.0,0.0,6.0,0.0,0.0,0.0,0.0,866.0,847.0,4560.574229691877,72.27175676373537,26.4864369142444,5590.0,JURONG EAST,45.015845577643326,82.06217412908822,0.7357250300321325
104 LENGKONG TIGA,3.5,147.0,1989.0,70.125,841000.0,2017.5,7.0,1.325634967,103.9098152,26.53,51.02,66.98,37.78,28.08,20.8,29.27,31.43,17.88,21.25,628.0,0.0,0.0,1.0,145.0,0.0,1834.0,3.0,7.0,0.0,0.0,1.0,1.0,1.0,2.0,0.0,0.0,0.0,0.0,167.0,182.0,5723.013698630137,81.63415313792142,28.53149765290297,6787.0,BEDOK,51.11977742401701,99.51279256079034,0.6305533066634003
104 PASIR RIS ST 12,6.0,116.44444444444444,1989.0,70.04777777777778,433444.44444444455,2017.7777777777771,6.333333333333332,1.367952786,103.9587026,38.25,61.3,71.77,49.55,23.32,31.6,40.0,42.15,28.53,15.779999999999998,1175.0,0.0,0.0,8.0,40.0,1.0,676.0,3.0,7.0,0.0,0.0,0.0,0.0,4.0,8.0,0.0,0.0,0.0,0.0,413.0,413.0,3715.3916211293267,53.04525309909479,13.38795513291942,2465.0,PASIR RIS,43.50398179749715,71.55825353538319,0.34010048062351184
104 POTONG PASIR AVE 1,9.75,79.25,1984.0,65.04916666666665,432166.66666666674,2018.416666666667,5.833333333333332,1.3343391690000002,103.8691589,19.03,35.68,50.95,23.079999999999995,42.57,13.569999999999995,21.87,24.420000000000005,10.0,25.1,171.0,0.0,0.0,7.0,110.0,1.0,332.0,2.0,11.0,0.0,0.0,0.0,1.0,3.0,8.0,1.0,1.0,1.0,1.0,592.0,559.0,5441.500391378966,83.64946358021494,11.396446480563831,7283.0,TOA PAYOH,56.37677727790368,108.7945572173222,0.5202945705413599
104 RIVERVALE WALK,10.0,106.33333333333331,1999.0,80.17555555555556,395987.5555555556,2017.555555555556,6.222222222222222,1.382627459,103.90092990000002,38.28,50.73,68.5,38.63,49.35000000000001,25.17,34.4,36.55,23.03,24.13,830.0,0.0,0.0,7.0,169.0,1.0,321.0,4.0,15.0,0.0,0.0,0.0,0.0,3.0,9.0,0.0,0.0,0.0,0.0,1125.0,1005.0,3718.7732942351813,46.37821067684128,6.52883971817638,2077.0,SENGKANG,41.178724969218116,67.75428524303348,0.19564914733881125
104 SERANGOON NTH AVE 1,3.0,79.33333333333333,1984.0,65.33333333333333,311666.66666666674,2018.0,6.333333333333332,1.3705931619999998,103.8710868,34.78,45.78,66.22,30.75,54.07,20.02,28.320000000000004,31.8,16.48,32.12,1904.0,0.0,0.0,5.0,93.0,1.0,903.0,1.0,6.0,0.0,0.0,1.0,1.0,2.0,5.0,0.0,0.0,0.0,0.0,1016.0,903.0,3949.056914586936,60.45507887684382,24.50057835755884,3076.0,SERANGOON,48.00287255069534,95.38608760737254,0.2627978348715644
104 TAMPINES ST 11,5.666666666666668,88.55555555555556,1982.0,63.26777777777777,363444.44444444455,2018.333333333333,3.2222222222222223,1.347205767,103.94664179999998,36.32,58.22000000000001,69.57,51.37,26.62,26.0,33.92000000000001,36.07999999999999,22.47,14.480000000000002,725.0,0.0,0.0,3.0,138.0,5.0,635.0,6.0,12.0,0.0,0.0,1.0,1.0,2.0,12.0,0.0,0.0,0.0,0.0,445.0,333.0,4089.4212093579185,64.64071444598795,16.95281475790324,4517.0,TAMPINES,45.923453241354,83.46135467326172,0.49862300476723054
104 TECK WHYE LANE,4.0,104.33333333333331,1989.0,68.44333333333333,306000.0,2019.333333333333,5.333333333333333,1.3770816209999996,103.7528704,36.33,37.82,26.13,33.03,64.02,32.23,26.399999999999995,14.02,23.570000000000004,43.1,1029.0,0.0,0.0,6.0,165.0,3.0,332.0,2.0,10.0,0.0,0.0,0.0,0.0,2.0,11.0,0.0,0.0,0.0,0.0,1170.0,999.0,2932.2202573026902,42.83875699975604,12.679687436501752,1762.0,CHOA CHU KANG,38.237492386353885,61.43536358576746,0.1983485714636813
104 TOWNER RD,3.5,126.33333333333331,1983.0,63.55666666666667,680000.0,2018.5,4.666666666666667,1.319823545,103.86097970000002,13.6,30.25,44.13,15.82,39.48,12.1,22.05,24.9,10.18,26.03,214.0,0.0,0.0,4.0,95.0,0.0,1039.0,2.0,6.0,0.0,0.0,0.0,0.0,1.0,2.0,0.0,0.0,0.0,0.0,463.0,509.0,5391.9931165832,84.87241655698638,31.77028300949912,8031.0,KALLANG/WHAMPOA,62.7371318203751,116.18999089089591,0.4141085270557373
104 WHAMPOA DR,7.25,117.625,1998.0,79.48875,619250.0,2017.75,7.375,1.3207995909999999,103.85332779999999,19.430000000000003,38.6,49.3,14.33,47.43,12.57,20.87,24.98,8.83,29.78,880.0,0.0,0.0,4.0,57.0,1.0,1000.0,3.0,9.0,0.0,0.0,0.0,1.0,1.0,3.0,0.0,0.0,0.0,0.0,112.0,59.0,5266.060738999797,66.2114120759897,14.069256162272195,8027.0,KALLANG/WHAMPOA,62.7371318203751,116.18999089089591,0.0649970893237152
104 WOODLANDS ST 13,7.7,91.2,1985.0,65.266,319200.0,2018.5,7.3,1.4364658709999998,103.7815769,48.03,46.78,35.0,44.0,72.02,35.80000000000001,31.5,26.550000000000004,28.43,42.5,631.0,0.0,0.0,4.0,101.0,2.0,386.0,4.0,9.0,0.0,0.0,0.0,0.0,4.0,7.0,0.0,0.0,0.0,0.0,989.0,942.0,3499.3549928332536,53.62274538625692,10.44201267375934,598.0,WOODLANDS,38.19691376194177,63.43683209530688,0.6111680481914817
104A ANG MO KIO ST 11,3.0,145.0,1996.0,76.78000000000002,821666.6666666665,2018.0,8.0,1.3718270089999998,103.8388037,32.22,42.63,61.88,28.18,53.25,21.32,25.37,29.100000000000005,17.7,34.68,1265.0,0.0,0.0,4.0,225.0,1.0,797.0,3.0,7.0,1.0,1.0,1.0,1.0,5.0,10.0,1.0,1.0,2.0,2.0,2018.0,1900.0,5666.37253100999,73.80440665072723,29.551914725075026,2850.0,ANG MO KIO,48.941092721124754,93.79298471217095,0.55434258903874
104A DEPOT RD,13.4,112.2,2000.0,80.98400000000002,640377.6,2018.2,5.0,1.280455613,103.81231770000002,19.55,30.82,39.48,32.53,53.2,11.07,11.37,19.75,12.57,33.85,1114.0,0.0,0.0,2.0,87.0,0.0,1093.0,2.0,8.0,0.0,0.0,0.0,0.0,1.0,5.0,0.0,0.0,0.0,0.0,259.0,780.0,5704.8876761619185,70.42736485814501,6.920245429881284,9523.0,BUKIT MERAH,61.931118440609815,155.90058143249632,0.09041497255623115
104A EDGEFIELD PLAINS,8.272727272727273,108.1818181818182,2003.0,83.87818181818183,406262.54545454547,2018.090909090909,5.545454545454546,1.396805705,103.9050542,37.92000000000001,50.37,70.81999999999998,40.14999999999999,36.10000000000001,28.72000000000001,37.93,40.10000000000001,25.800000000000008,22.5,966.0,0.0,0.0,6.0,107.0,2.0,514.0,8.0,17.0,0.0,0.0,1.0,1.0,5.0,8.0,0.0,0.0,0.0,0.0,68.0,43.0,3757.5750229568407,44.81349973053025,7.673926289873768,1561.0,PUNGGOL,41.920667046761714,68.81382560879811,0.10756760598036233
104B ANG MO KIO ST 11,5.428571428571429,127.85714285714286,1996.0,77.01285714285714,645269.7142857143,2017.857142857143,6.857142857142858,1.371511514,103.8384588,31.9,42.32,61.57,27.87,52.93,21.03,25.08,28.82,17.5,34.5,1296.0,0.0,0.0,4.0,214.0,1.0,836.0,3.0,8.0,1.0,2.0,1.0,2.0,5.0,12.0,1.0,2.0,2.0,4.0,2059.0,1941.0,5046.530300899887,65.5533179477409,16.587691923432548,2850.0,ANG MO KIO,48.941092721124754,93.79298471217095,0.3703795868841485
104B DEPOT RD,12.714285714285715,106.71428571428572,2000.0,80.71571428571428,614000.1428571428,2018.2857142857144,7.428571428571429,1.2804914400000005,103.81210080000002,19.85,31.12,39.78000000000001,32.82999999999999,53.5,11.33,11.400000000000002,19.78,12.95,34.22,1112.0,0.0,0.0,2.0,80.0,0.0,1073.0,2.0,8.0,0.0,0.0,0.0,0.0,1.0,5.0,0.0,0.0,0.0,0.0,264.0,802.0,5755.902049689442,71.3181357320274,7.491993344153327,9503.0,BUKIT MERAH,61.931118440609815,155.90058143249632,0.09989433793218631
104B EDGEFIELD PLAINS,9.5,100.0,2003.0,84.34666666666666,384666.66666666674,2017.666666666667,4.833333333333333,1.396608862,103.9053038,37.32,49.77,68.42,39.55,35.43,27.65,36.88,39.05,25.63,22.33,995.0,0.0,0.0,6.0,78.0,2.0,497.0,8.0,17.0,0.0,0.0,1.0,1.0,5.0,8.0,0.0,0.0,0.0,0.0,66.0,45.0,3853.872053872053,45.70749275827082,7.758822896564994,1561.0,PUNGGOL,41.920667046761714,68.81382560879811,0.14081000202240124
105 ALJUNIED CRES,5.857142857142858,114.71428571428572,1979.0,59.75,568269.7142857143,2017.857142857143,6.571428571428571,1.3194686210000002,103.8827515,13.42,35.9,50.25,25.5,30.7,14.230000000000002,26.050000000000004,28.28,14.2,22.680000000000003,332.0,0.0,0.0,5.0,90.0,0.0,1093.0,3.0,6.0,0.0,0.0,0.0,0.0,1.0,6.0,0.0,1.0,0.0,1.0,165.0,304.0,4959.565525383708,83.0106154556538,17.794494328083502,7797.0,GEYLANG,56.60567349092167,112.03927730253292,0.47633457233753396
105 ANG MO KIO AVE 4,5.5,92.0,1978.0,58.79166666666666,369916.66666666674,2017.833333333333,8.666666666666666,1.3723132830000002,103.8376011,31.02,41.43,61.15,26.98,52.63,20.85,24.9,28.63,17.8,34.800000000000004,1328.0,0.0,0.0,4.0,221.0,1.0,931.0,3.0,7.0,1.0,1.0,1.0,1.0,5.0,10.0,1.0,1.0,2.0,2.0,2125.0,2007.0,4020.833333333333,68.24319671978034,14.836540305334141,2849.0,ANG MO KIO,48.941092721124754,93.79298471217095,0.43035205744517707
105 BEDOK NTH AVE 4,6.090909090909091,70.54545454545455,1977.0,57.86363636363637,274717.0909090909,2018.2727272727273,6.2727272727272725,1.3337228089999995,103.93651769999998,31.550000000000008,51.67999999999999,66.18000000000002,41.32,21.82,23.469999999999995,31.38,33.550000000000004,19.920000000000005,17.5,501.0,0.0,0.0,4.0,258.0,0.0,1093.0,4.0,9.0,0.0,0.0,2.0,3.0,3.0,12.0,0.0,0.0,0.0,0.0,130.0,123.0,3893.001187381967,67.24249388825989,17.569168050836712,6672.0,BEDOK,51.11977742401701,99.51279256079034,0.33316205693477025
105 BEDOK RESERVOIR RD,6.3125,79.4375,1985.0,65.58375000000001,326774.25,2018.5,7.3125,1.3291443790000002,103.9091128,27.0,49.79999999999999,62.5,40.73,34.32999999999999,20.32,28.230000000000004,30.39999999999999,16.72,21.050000000000004,687.0,0.0,0.0,1.0,273.0,0.0,1962.0,3.0,6.0,0.0,0.0,1.0,1.0,1.0,2.0,0.0,0.0,0.0,0.0,157.0,191.0,4107.262338708475,62.62648437776187,13.429170120869513,6709.0,BEDOK,51.11977742401701,99.51279256079034,0.23777619396566668
105 BISHAN ST 12,4.25,79.0,1985.0,66.69874999999999,463125.0,2017.875,5.375,1.345894936,103.84736529999999,24.53,31.57999999999999,44.82999999999999,20.5,45.32,18.28,22.32,26.050000000000004,14.680000000000005,31.520000000000003,531.0,0.0,0.0,6.0,88.0,2.0,498.0,3.0,10.0,0.0,1.0,0.0,2.0,4.0,8.0,1.0,2.0,1.0,3.0,1140.0,1170.0,5893.179086538462,88.33733780490465,28.37593915226328,5044.0,BISHAN,60.269202437554405,104.71884134318148,0.6314592437284564
105 BT BATOK CTRL,5.333333333333333,106.66666666666669,1985.0,65.66777777777777,414000.0,2018.0,7.555555555555554,1.3487241330000002,103.746633,36.57,29.43,10.82,39.27,70.22000000000001,27.23,19.13,5.1000000000000005,24.680000000000003,44.23,382.0,1.0,0.0,8.0,183.0,1.0,311.0,3.0,9.0,0.0,0.0,0.0,0.0,3.0,7.0,0.0,0.0,0.0,0.0,506.0,495.0,3890.2243589743593,59.23919698031642,15.472315054715994,4162.0,BUKIT BATOK,45.388244408445615,75.4522795519283,0.46071502064730097
105 BT PURMEI RD,9.0,92.33333333333331,1983.0,63.39000000000001,520000.0,2018.0,9.333333333333334,1.272483013,103.824703,18.1,29.3,40.97,28.92,51.75,9.15,12.800000000000002,21.2,12.449999999999998,31.88,811.0,0.0,0.0,8.0,57.0,1.0,955.0,3.0,7.0,0.0,0.0,0.0,0.0,1.0,3.0,0.0,0.0,0.0,0.0,468.0,477.0,5632.754342431762,88.86579768776511,10.105864801970764,9613.0,BUKIT MERAH,61.931118440609815,155.90058143249632,0.28663225679475135
105 CLEMENTI ST 12,3.5,70.5,1984.0,65.4375,345625.0,2018.0,7.25,1.32271179,103.76988809999999,28.53,25.87,28.87,31.47,62.18,18.57,9.62,13.25,19.08,40.17,978.0,0.0,0.0,3.0,150.0,1.0,996.0,2.0,8.0,0.0,1.0,1.0,3.0,0.0,6.0,0.0,1.0,0.0,2.0,967.0,948.0,4890.938824396536,74.69141169370099,26.483175239076953,7474.0,CLEMENTI,59.93213531102735,107.87813994082994,0.3078312050530998
105 GANGSA RD,2.6,74.0,1987.0,68.31800000000001,300100.0,2018.0,7.4,1.378312421,103.76776329999998,35.97,37.45,31.78,32.67,63.65,29.329999999999995,24.63,14.57,21.97,41.52,654.0,0.0,0.0,8.0,97.0,5.0,422.0,4.0,8.0,0.0,0.0,0.0,1.0,2.0,7.0,0.0,0.0,0.0,0.0,825.0,864.0,4097.807088744588,59.926623325861314,26.278489075306247,3334.0,BUKIT PANJANG,41.18990670299474,70.64784749753744,0.6360497752897136
105 HENDERSON CRES,14.6,65.0,1975.0,54.84,337566.66666666674,2018.733333333333,6.4,1.290214202,103.82235680000002,14.319999999999995,23.480000000000004,34.57999999999999,30.98000000000001,47.97000000000001,8.599999999999998,11.48,21.42000000000001,9.12,32.39999999999999,573.0,0.0,0.0,6.0,147.0,1.0,677.0,3.0,8.0,0.0,0.0,0.0,0.0,2.0,6.0,0.0,0.0,0.0,0.0,1068.0,1099.0,5193.333333333332,94.703782029766,9.56360965214791,9417.0,BUKIT MERAH,61.931118440609815,155.90058143249632,0.3487586556920714
105 JLN RAJAH,5.75,150.125,1984.0,65.21875,760750.0,2017.875,6.0,1.3282655140000001,103.85415450000002,25.2,38.85,60.5,20.87,56.72000000000001,13.0,21.3,23.85,9.25,30.22,848.0,0.0,0.0,4.0,36.0,3.0,857.0,1.0,9.0,0.0,0.0,0.0,1.0,1.0,5.0,0.0,0.0,0.0,0.0,88.0,77.0,5069.29036122784,77.66047939070548,16.024617266633143,7949.0,KALLANG/WHAMPOA,62.7371318203751,116.18999089089591,0.279187078667614
105 JURONG EAST ST 13,6.5,91.25,1993.0,73.77,448250.0,2018.25,7.5,1.337624153,103.7383549,31.92,24.8,10.08,34.58,65.57,23.45,15.35,4.32,24.77,44.3,628.0,0.0,0.0,5.0,76.0,3.0,528.0,2.0,5.0,0.0,0.0,0.0,0.0,0.0,5.0,0.0,0.0,0.0,0.0,750.0,733.0,4912.5358337314865,66.60605100678103,15.312213519215215,5577.0,JURONG EAST,45.015845577643326,82.06217412908822,0.5827893417064574
105 PASIR RIS ST 12,6.7142857142857135,114.0,1989.0,69.35857142857144,427571.4285714286,2018.142857142857,8.285714285714286,1.368437921,103.95753879999998,39.2,62.25,72.72000000000001,50.5,23.53,31.38,39.77,41.93,28.300000000000004,15.569999999999995,1035.0,0.0,0.0,8.0,74.0,2.0,815.0,3.0,7.0,0.0,0.0,0.0,0.0,5.0,8.0,0.0,0.0,0.0,0.0,404.0,430.0,3750.72540065378,54.08647012029558,14.230813097906012,2464.0,PASIR RIS,43.50398179749715,71.55825353538319,0.37721486487589895
105 POTONG PASIR AVE 1,8.545454545454545,76.63636363636364,1984.0,65.42363636363636,425909.09090909094,2017.7272727272727,5.454545454545454,1.3344237319999996,103.86869679999997,19.53,36.18,51.45,23.579999999999995,43.07,13.400000000000004,21.699999999999992,24.25,10.230000000000002,25.32,181.0,0.0,0.0,8.0,142.0,1.0,332.0,2.0,11.0,0.0,0.0,0.0,1.0,3.0,8.0,1.0,1.0,1.0,1.0,585.0,562.0,5553.1833687173485,84.85989932120849,15.16326564149867,7283.0,TOA PAYOH,56.37677727790368,108.7945572173222,0.5433866538457749
105 RIVERVALE WALK,5.0,100.0,1999.0,78.67,365000.0,2019.0,7.0,1.382156131,103.9007119,38.62,51.07,68.83,38.97,49.28,24.6,33.83,36.0,22.37,24.82,807.0,0.0,0.0,8.0,160.0,1.0,379.0,4.0,15.0,0.0,0.0,0.0,0.0,3.0,8.0,0.0,0.0,0.0,0.0,1116.0,998.0,3650.0,46.39633913817211,9.279267827634422,2077.0,SENGKANG,41.178724969218116,67.75428524303348,0.19633129518984618
105 SERANGOON NTH AVE 1,10.25,66.125,1985.0,65.98,272236.0,2018.0,4.375,1.370247459,103.870226,35.37,46.37,66.8,31.32999999999999,54.27,19.430000000000003,27.73,31.22,15.900000000000002,31.53,1955.0,0.0,0.0,4.0,117.0,1.0,807.0,1.0,6.0,0.0,0.0,1.0,1.0,2.0,5.0,0.0,0.0,0.0,0.0,927.0,815.0,4130.467701863355,62.59243384819163,7.059611415047464,3076.0,SERANGOON,48.00287255069534,95.38608760737254,0.3079056851681562
105 SIMEI ST 1,2.0,148.66666666666666,1988.0,69.19333333333333,667666.6666666665,2017.666666666667,4.0,1.340924594,103.9507425,31.58,54.45000000000001,65.33,40.47,16.1,24.88,32.8,34.97,21.17,15.550000000000002,392.0,0.0,0.0,6.0,78.0,1.0,318.0,2.0,11.0,0.0,0.0,0.0,2.0,1.0,9.0,0.0,0.0,0.0,0.0,286.0,246.0,4492.409417066951,64.92878796726261,32.464393983631304,4580.0,TAMPINES,45.923453241354,83.46135467326172,0.5062972089791311
105 TAMPINES ST 11,6.285714285714287,83.57142857142857,1982.0,64.10714285714286,357642.85714285716,2017.428571428572,5.857142857142858,1.348093125,103.9471776,36.96999999999999,58.87,70.22000000000001,49.18,27.12,26.680000000000003,34.6,36.77,23.13,14.069999999999995,648.0,0.0,0.0,5.0,172.0,5.0,570.0,5.0,12.0,0.0,0.0,1.0,1.0,2.0,10.0,0.0,0.0,0.0,0.0,480.0,431.0,4274.421768707482,66.68504418885165,13.604998497492044,4496.0,TAMPINES,45.923453241354,83.46135467326172,0.5530834211698904
105 TECK WHYE LANE,4.25,73.0,1989.0,70.2075,271000.0,2018.0,6.75,1.37765002,103.7529943,37.35,38.83,27.15,34.05,65.03,32.15,26.3,13.93,24.77,44.32,1004.0,0.0,0.0,7.0,100.0,3.0,273.0,2.0,11.0,0.0,0.0,0.0,1.0,2.0,11.0,0.0,0.0,0.0,0.0,1113.0,942.0,3712.328767123288,52.89377110286434,17.2050109394464,1748.0,CHOA CHU KANG,38.237492386353885,61.43536358576746,0.6317941241470879
105 TOWNER RD,7.142857142857142,84.28571428571429,1984.0,65.68857142857142,469785.7142857143,2017.857142857143,5.571428571428571,1.320813043,103.86134670000001,13.87,30.520000000000003,44.39999999999999,16.03,39.75,12.62,22.37,24.92,10.769999999999998,26.28,330.0,0.0,0.0,2.0,94.0,0.0,1155.0,2.0,7.0,0.0,0.0,0.0,1.0,1.0,2.0,0.0,0.0,0.0,0.0,419.0,515.0,5568.9868682441565,84.84912425490582,20.386174679684988,8017.0,KALLANG/WHAMPOA,62.7371318203751,116.18999089089591,0.41367277296352245
105 WOODLANDS ST 13,9.090909090909092,91.63636363636364,1985.0,65.81727272727274,328398.9090909091,2017.909090909091,7.545454545454546,1.4368447619999998,103.78157910000004,48.899999999999984,47.649999999999984,35.87,44.87,71.45000000000002,36.18,31.88,26.930000000000003,28.82,42.88,628.0,0.0,0.0,4.0,112.0,2.0,422.0,4.0,9.0,0.0,0.0,0.0,0.0,4.0,7.0,0.0,0.0,0.0,0.0,1026.0,974.0,3584.038874169309,54.44200103695111,6.753075129308653,598.0,WOODLANDS,38.19691376194177,63.43683209530688,0.643626776459679
105A EDGEFIELD PLAINS,8.75,107.5,2003.0,84.3975,409937.5,2017.625,4.75,1.396941332,103.9057295,36.27,48.72,67.37,38.5,35.78,27.65,36.88,39.03,25.03,21.73,976.0,0.0,0.0,6.0,118.0,2.0,543.0,8.0,17.0,0.0,0.0,1.0,1.0,5.0,8.0,0.0,0.0,0.0,0.0,118.0,98.0,3815.088383838384,45.203003488877314,5.967373236449728,1561.0,PUNGGOL,41.920667046761714,68.81382560879811,0.12205098313550626
105B EDGEFIELD PLAINS,8.0,98.0,2003.0,83.436,379600.0,2018.4,7.2,1.3972064640000001,103.9060023,36.5,48.95,67.6,38.73,36.22,27.05,36.28,38.43,24.83,21.53,960.0,0.0,0.0,8.0,157.0,2.0,580.0,9.0,17.0,0.0,0.0,1.0,1.0,5.0,8.0,0.0,0.0,0.0,0.0,155.0,135.0,3869.090909090909,46.38889499822661,8.412829625651518,1561.0,PUNGGOL,41.920667046761714,68.81382560879811,0.16614738433039436
105C EDGEFIELD PLAINS,7.625,102.5,2003.0,84.50125,399000.0,2017.25,8.125,1.3976720349999998,103.9055988,36.57999999999999,49.03,67.68,38.82,37.37,27.28,36.52,38.68,25.07,21.770000000000003,895.0,0.0,0.0,7.0,153.0,2.0,619.0,9.0,17.0,0.0,0.0,1.0,1.0,5.0,8.0,0.0,0.0,0.0,0.0,170.0,145.0,3896.464646464647,46.11275631203148,8.850943823770775,1561.0,PUNGGOL,41.920667046761714,68.81382560879811,0.15587939421840571
105D EDGEFIELD PLAINS,9.0,103.33333333333331,2003.0,84.40333333333334,393833.33333333326,2017.5,6.5,1.397175309,103.9052296,37.12,49.57,68.22000000000001,39.35,36.63,28.72,37.93,40.1,26.430000000000003,23.13,933.0,0.0,0.0,6.0,141.0,2.0,557.0,8.0,17.0,0.0,0.0,1.0,1.0,5.0,8.0,0.0,0.0,0.0,0.0,108.0,83.0,3822.727272727273,45.29865503725919,7.1532877670337065,1561.0,PUNGGOL,41.920667046761714,68.81382560879811,0.12560770735446428
106 ALJUNIED CRES,7.4,75.2,1979.0,59.492,377900.0,2018.1,6.2,1.31905495,103.88290090000001,16.599999999999998,40.47000000000001,50.97000000000001,24.98,26.75,14.169999999999998,25.98,28.22,14.419999999999998,22.9,289.0,0.0,0.0,5.0,41.0,0.0,1073.0,3.0,5.0,0.0,0.0,0.0,0.0,1.0,8.0,0.0,1.0,0.0,1.0,209.0,329.0,5068.401892974154,85.2046175177158,14.464123768337336,7814.0,GEYLANG,56.60567349092167,112.03927730253292,0.5159134903800667
106 ANG MO KIO AVE 4,5.5,76.5,1978.0,58.848333333333336,329833.33333333326,2018.0,5.833333333333332,1.371933703,103.83748609999999,32.4,42.82,62.07,28.37,53.43,20.83,24.88,28.62,17.28,34.28,1370.0,0.0,0.0,4.0,180.0,1.0,943.0,3.0,7.0,1.0,1.0,1.0,1.0,5.0,10.0,1.0,1.0,2.0,2.0,2144.0,2026.0,4293.982184431622,72.89935496023509,15.663941476863133,2849.0,ANG MO KIO,48.941092721124754,93.79298471217095,0.5341639154016765
106 BEDOK NTH AVE 4,7.5,45.0,1978.0,59.32,210166.66666666663,2017.833333333333,4.666666666666667,1.33445895,103.9370871,33.4,55.8,66.77,44.55,23.1,23.48,31.4,33.57,19.95,17.52,515.0,0.0,0.0,2.0,223.0,0.0,1060.0,4.0,10.0,0.0,0.0,2.0,3.0,3.0,12.0,0.0,0.0,0.0,0.0,52.0,49.0,4670.37037037037,78.7054873408487,12.667368951910909,6646.0,BEDOK,51.11977742401701,99.51279256079034,0.5700349490286174
106 BEDOK RESERVOIR RD,7.5,93.0,1985.0,66.02666666666666,381500.0,2018.166666666667,6.0,1.329501522,103.9093817,30.87,53.07999999999999,64.62,43.8,33.42000000000001,20.07,28.0,30.170000000000005,16.53,20.87,647.0,0.0,0.0,2.0,227.0,0.0,2009.0,3.0,6.0,0.0,0.0,1.0,1.0,1.0,2.0,0.0,0.0,0.0,0.0,175.0,231.0,4102.048436999893,62.1499546433855,11.554701146723405,6709.0,BEDOK,51.11977742401701,99.51279256079034,0.22792911721234696
106 BISHAN ST 12,7.625,89.25,1985.0,66.62625,535375.0,2017.625,8.25,1.3461007009999997,103.84784720000002,25.22,32.27,45.52,21.180000000000003,45.89999999999999,17.349999999999998,21.38,25.12,13.8,30.65,500.0,1.0,1.0,7.0,134.0,2.0,465.0,3.0,10.0,0.0,1.0,0.0,2.0,4.0,8.0,1.0,2.0,1.0,3.0,1088.0,1120.0,6008.0357142857165,90.20975831310629,15.649199911739695,5044.0,BISHAN,60.269202437554405,104.71884134318148,0.6735837818417368
106 BT BATOK CTRL,3.8,104.6,1985.0,65.51599999999999,420000.0,2018.4,4.2,1.348222309,103.74718850000002,35.15,28.72,10.23,38.7,68.8,27.2,19.1,5.05,24.47,44.02,343.0,1.0,0.0,7.0,145.0,1.0,299.0,3.0,9.0,0.0,0.0,0.0,0.0,3.0,6.0,0.0,0.0,0.0,0.0,490.0,475.0,4015.276779295471,61.2980712674801,22.45420191920412,4162.0,BUKIT BATOK,45.388244408445615,75.4522795519283,0.5291979863349592
106 BT PURMEI RD,8.0,85.66666666666667,1984.0,64.30666666666667,415000.0,2018.666666666667,7.666666666666668,1.27298937,103.8256268,16.23,27.070000000000004,38.68,30.52,49.88,9.32,12.88,21.28,12.550000000000002,32.05,910.0,0.0,0.0,7.0,127.0,0.0,1046.0,3.0,7.0,0.0,0.0,0.0,0.0,1.0,4.0,0.0,0.0,0.0,0.0,373.0,402.0,4815.617594358708,74.84205147217291,17.43920166139336,9614.0,BUKIT MERAH,61.931118440609815,155.90058143249632,0.13739498578041093
106 GANGSA RD,5.0,85.85714285714286,1988.0,68.37,309142.85714285716,2018.2857142857144,6.7142857142857135,1.3779020000000002,103.76741230000002,35.02,36.5,29.98,30.82999999999999,62.7,28.98,24.270000000000003,14.22,21.6,41.15,623.0,0.0,0.0,7.0,66.0,5.0,410.0,4.0,8.0,0.0,0.0,0.0,1.0,2.0,7.0,0.0,0.0,0.0,0.0,868.0,886.0,3662.569110634013,53.57729888829074,16.351758140319742,3334.0,BUKIT PANJANG,41.18990670299474,70.64784749753744,0.42051113727510975
106 HENDERSON CRES,7.571428571428571,81.0,1975.0,56.39285714285714,474612.5714285714,2017.2857142857144,5.0,1.289426079,103.82227680000004,12.28,24.7,35.80000000000001,29.88,45.93,8.28,11.47,21.1,8.769999999999998,32.050000000000004,559.0,0.0,0.0,9.0,105.0,1.0,634.0,3.0,8.0,0.0,0.0,0.0,0.0,2.0,6.0,0.0,0.0,0.0,0.0,997.0,1021.0,5859.414462081129,103.91024431153288,18.772065372491227,9417.0,BUKIT MERAH,61.931118440609815,155.90058143249632,0.4467315714526071
106 HOUGANG AVE 1,2.0,74.0,1984.0,64.02,269000.0,2018.75,7.5,1.353702971,103.8906808,34.13,43.33,55.75,32.0,37.77,21.15,30.05,32.55,18.2,25.52,973.0,0.0,0.0,7.0,35.0,1.0,893.0,2.0,4.0,0.0,0.0,0.0,0.0,2.0,5.0,0.0,0.0,1.0,1.0,866.0,1074.0,3642.159572507832,56.88188638282652,28.44094319141326,3840.0,HOUGANG,41.786204315828854,81.1839872703508,0.3831606992815578
106 JLN DUSUN,6.0,96.0,1981.0,61.69333333333333,479629.33333333326,2018.0,9.666666666666666,1.328557712,103.8447968,19.32,29.97,51.68,16.9,46.20000000000001,13.57,18.73,20.9,6.95,28.8,535.0,0.0,0.0,7.0,136.0,6.0,265.0,1.0,10.0,0.0,1.0,0.0,2.0,1.0,10.0,0.0,3.0,0.0,3.0,103.0,93.0,5000.237087342011,81.07978012905433,20.51083036948402,7944.0,KALLANG/WHAMPOA,62.7371318203751,116.18999089089591,0.3431556071580683
106 JLN RAJAH,4.625,151.75,1984.0,64.98,750500.0,2018.25,6.375,1.328476558,103.8546989,25.4,39.05,60.7,21.07,57.89999999999999,12.930000000000005,21.22,23.78,9.38,30.32999999999999,888.0,0.0,0.0,4.0,99.0,2.0,921.0,2.0,9.0,0.0,0.0,1.0,1.0,1.0,5.0,0.0,0.0,0.0,0.0,62.0,50.0,4946.4673562946555,76.13451358071198,24.219590482500053,7949.0,KALLANG/WHAMPOA,62.7371318203751,116.18999089089591,0.25063919860042666
106 JURONG EAST ST 13,18.0,120.0,1982.0,63.30666666666667,618333.3333333335,2018.0,6.333333333333332,1.3372496509999998,103.7376747,32.03,24.92,11.0,34.7,65.68,22.97,14.87,3.85,24.23,43.77,656.0,0.0,0.0,5.0,158.0,2.0,526.0,2.0,4.0,0.0,0.0,0.0,0.0,0.0,7.0,0.0,0.0,0.0,0.0,800.0,781.0,5152.777777777777,81.39133936895551,4.7068070757970055,5590.0,JURONG EAST,45.015845577643326,82.06217412908822,0.9818920042454101
106 LENGKONG TIGA,5.0,148.66666666666666,1989.0,70.22333333333334,841666.6666666665,2017.333333333333,9.333333333333334,1.325088459,103.9100088,25.17,49.65,65.62,36.42,26.72,21.13,29.600000000000005,31.77,18.13,21.48,565.0,0.0,0.0,1.0,125.0,0.0,1830.0,2.0,7.0,0.0,0.0,1.0,1.0,1.0,2.0,0.0,0.0,0.0,0.0,225.0,236.0,5665.213781652137,80.6846687525795,22.101682734322623,6787.0,BEDOK,51.11977742401701,99.51279256079034,0.6109330291779328
106 PASIR RIS ST 12,3.5,103.0,1989.0,69.16499999999999,385000.0,2018.5,6.0,1.36801255,103.9576531,39.45,62.5,72.97,50.75,23.78,30.73,39.13,41.3,27.67,14.93,1069.0,0.0,0.0,6.0,94.0,1.0,791.0,3.0,8.0,0.0,0.0,0.0,0.0,5.0,8.0,0.0,0.0,0.0,0.0,371.0,389.0,3737.864077669903,54.02257189590755,18.728557782950784,2464.0,PASIR RIS,43.50398179749715,71.55825353538319,0.3749372001770951
106 POTONG PASIR AVE 1,2.75,75.75,1984.0,64.2925,384172.0,2018.75,6.5,1.3341003359999999,103.8681713,18.85,35.5,50.77,22.9,43.93,13.4,21.7,24.25,9.87,24.95,168.0,0.0,0.0,6.0,150.0,1.0,295.0,2.0,11.0,0.0,0.0,0.0,1.0,3.0,9.0,1.0,1.0,1.0,1.0,538.0,525.0,5087.050717384051,79.12939014218816,33.23814380072258,7310.0,TOA PAYOH,56.37677727790368,108.7945572173222,0.434062886497304
106 RIVERVALE WALK,4.25,100.25,1999.0,79.52250000000002,357000.0,2018.0,7.75,1.3824972919999998,103.9003213,37.62,50.07,67.83,37.97,48.42,24.2,33.43,35.58,22.0,24.48,762.0,0.0,0.0,7.0,122.0,1.0,362.0,4.0,15.0,0.0,0.0,0.0,0.0,3.0,9.0,0.0,0.0,0.0,0.0,1167.0,1049.0,3560.594059405941,44.773840916872985,17.587263743357475,2077.0,SENGKANG,41.178724969218116,67.75428524303348,0.13527902744526896
106 SERANGOON NTH AVE 1,8.0,60.0,1984.0,65.83500000000001,275000.0,2017.0,10.0,1.3702446209999999,103.870823,35.22,46.22,66.65,31.18,51.93,19.88,28.17,31.67,16.23,31.87,1903.0,0.0,0.0,5.0,115.0,1.0,856.0,1.0,6.0,0.0,0.0,1.0,1.0,2.0,5.0,0.0,0.0,0.0,0.0,986.0,874.0,4583.333333333334,69.6252728287904,10.274916824711253,3076.0,SERANGOON,48.00287255069534,95.38608760737254,0.45633037463227283
106 SIMEI ST 1,7.0,107.0,1988.0,68.41833333333334,477833.33333333326,2019.0,5.0,1.341885217,103.9508335,31.38,54.25,65.13,40.27,15.58,25.55,33.47,35.63,22.0,16.38,342.0,0.0,0.0,5.0,64.0,1.0,260.0,3.0,10.0,0.0,0.0,0.0,1.0,1.0,9.0,0.0,0.0,0.0,0.0,216.0,208.0,4472.782681799074,65.33655661619314,9.717587433653481,4580.0,TAMPINES,45.923453241354,83.46135467326172,0.5171600604805717
106 SPOTTISWOODE PK RD,13.727272727272727,121.8181818181818,1979.0,60.34818181818181,721989.8181818181,2017.909090909091,7.181818181818183,1.2735667379999998,103.8340582,19.38,29.62,49.28,27.07999999999999,55.52999999999998,5.68,15.629999999999995,24.219999999999995,12.58,29.65,1029.0,0.0,0.0,3.0,152.0,0.0,1052.0,1.0,5.0,0.0,0.0,0.0,0.0,0.0,2.0,0.0,0.0,0.0,0.0,116.0,108.0,5927.909334684853,98.27661784522098,8.926832571448983,9618.0,BUKIT MERAH,61.931118440609815,155.90058143249632,0.3867798989949459
106 TAMPINES ST 11,8.0,133.0,1984.0,64.52,565000.0,2018.5,7.25,1.347539192,103.94767540000001,38.1,60.0,71.35,49.83,28.35,26.88,34.8,36.97,23.33,14.65,726.0,0.0,0.0,6.0,231.0,5.0,651.0,6.0,12.0,0.0,0.0,1.0,1.0,3.0,10.0,0.0,0.0,0.0,0.0,405.0,373.0,4248.12030075188,65.82520450238792,8.863790084586427,4518.0,TAMPINES,45.923453241354,83.46135467326172,0.5301775139757057
106 TECK WHYE LANE,6.7142857142857135,81.57142857142857,1989.0,70.37,281857.14285714284,2018.142857142857,4.714285714285714,1.3779579880000001,103.7529316,38.0,39.48,27.300000000000004,34.7,65.68,32.38,26.550000000000004,14.17,25.020000000000003,44.55,1006.0,0.0,0.0,7.0,71.0,3.0,238.0,2.0,11.0,0.0,0.0,0.0,1.0,2.0,11.0,0.0,0.0,0.0,0.0,1083.0,916.0,3511.656185282997,49.935209550042494,11.271860418532707,1748.0,CHOA CHU KANG,38.237492386353885,61.43536358576746,0.5042582167619034
106 TOWNER RD,7.4,126.0,1983.0,63.918000000000006,746000.0,2017.8,9.6,1.320317021,103.85847609999999,17.18,33.83,49.1,21.23,39.8,11.58,21.37,25.33,9.7,26.72,364.0,0.0,0.0,2.0,166.0,0.0,1001.0,2.0,7.0,0.0,0.0,0.0,1.0,1.0,2.0,0.0,0.0,0.0,0.0,239.0,264.0,5946.103289891403,93.00514363514948,17.19519953472097,8030.0,KALLANG/WHAMPOA,62.7371318203751,116.18999089089591,0.56625618051303
106 WOODLANDS ST 13,3.5,79.5,1985.0,66.875,309444.0,2017.0,5.5,1.4367694340000001,103.7822242,48.42,50.95,37.43,44.38,70.45,35.95,31.65,26.68,28.57,42.65,557.0,0.0,0.0,4.0,50.0,2.0,427.0,5.0,9.0,0.0,0.0,0.0,0.0,4.0,7.0,0.0,0.0,0.0,0.0,1015.0,934.0,3941.474367293965,58.965971362334464,19.888102951956142,598.0,WOODLANDS,38.19691376194177,63.43683209530688,0.8228654834012554
106 YISHUN RING RD,3.0,67.0,1978.0,58.026666666666664,246333.33333333328,2018.666666666667,5.0,1.4314786140000002,103.82745200000001,42.62,51.95000000000001,51.02,38.58,65.83,33.43,38.85,37.05,29.88,39.63,848.0,0.0,0.0,7.0,65.0,0.0,1034.0,3.0,9.0,0.0,0.0,0.0,0.0,2.0,6.0,0.0,0.0,0.0,0.0,2756.0,2505.0,3676.616915422885,63.3694449080193,25.485929186305622,814.0,YISHUN,40.766577486899415,70.08375596020441,0.7709769015357706
106A DEPOT RD,18.0,110.0,2000.0,81.02666666666666,656666.6666666665,2018.0,6.666666666666668,1.28061365,103.8109679,22.75,29.850000000000005,38.52,37.38,56.4,12.0,10.97,19.37,13.48,34.75,1105.0,0.0,0.0,4.0,144.0,1.0,980.0,2.0,8.0,0.0,0.0,0.0,0.0,1.0,5.0,0.0,0.0,0.0,0.0,277.0,916.0,5977.536231884059,73.81549558619679,5.053622220378236,9503.0,BUKIT MERAH,61.931118440609815,155.90058143249632,0.12647062957689875
106A PUNGGOL FIELD,8.272727272727273,100.9090909090909,2003.0,83.52999999999999,388626.1818181818,2018.2727272727273,6.363636363636362,1.396604861,103.9083441,35.37,47.82,66.47000000000001,37.60000000000001,41.75,26.85,36.07999999999999,38.23,24.62,21.32,1143.0,0.0,0.0,4.0,87.0,3.0,581.0,6.0,14.0,0.0,0.0,0.0,1.0,5.0,6.0,0.0,0.0,0.0,0.0,257.0,262.0,3871.079047156052,46.36165270782949,8.831023884281207,1563.0,PUNGGOL,41.920667046761714,68.81382560879811,0.16513440215002764
106B DEPOT RD,9.5,103.875,2000.0,81.59375,571597.0,2017.5,6.25,1.280649504,103.8107509,22.35,29.45,38.12,36.98,56.0,12.13,10.7,19.1,13.480000000000002,34.75,1107.0,0.0,0.0,4.0,164.0,1.0,961.0,2.0,8.0,0.0,0.0,0.0,0.0,1.0,5.0,0.0,0.0,0.0,0.0,277.0,938.0,5513.837886056971,67.59102580332234,10.138824990465663,9503.0,BUKIT MERAH,61.931118440609815,155.90058143249632,0.06023134731759838
106B PUNGGOL FIELD,8.5,93.33333333333331,2003.0,83.80499999999998,376166.66666666674,2017.833333333333,6.5,1.397094532,103.9079554,36.05,48.5,67.14999999999999,38.28,41.07999999999999,26.97,36.18,38.35,24.72,21.42,1074.0,0.0,0.0,6.0,76.0,3.0,645.0,7.0,15.0,0.0,0.0,0.0,1.0,5.0,6.0,0.0,0.0,0.0,0.0,268.0,265.0,4037.878787878788,48.189348044892505,8.545372648146053,1562.0,PUNGGOL,41.920667046761714,68.81382560879811,0.23309575123615062
106C PUNGGOL FIELD,11.0,110.66666666666669,2003.0,83.41666666666667,429933.33333333326,2018.333333333333,6.666666666666668,1.397366642,103.9075622,35.98,48.43,67.08,38.22,40.47,27.13,36.35,38.52,24.88,21.600000000000005,1025.0,0.0,0.0,7.0,114.0,3.0,667.0,7.0,16.0,0.0,0.0,0.0,1.0,5.0,6.0,0.0,0.0,0.0,0.0,265.0,254.0,3885.0122850122852,46.57543642263401,5.327204559360465,1562.0,PUNGGOL,41.920667046761714,68.81382560879811,0.17308377389494078
106D PUNGGOL FIELD,13.142857142857142,110.28571428571428,2003.0,83.46285714285716,433571.4285714286,2018.0,8.571428571428571,1.3976260669999996,103.90735809999998,35.47,47.92000000000001,66.57,37.7,40.1,27.48,36.71999999999999,38.87,25.0,21.7,988.0,0.0,0.0,7.0,130.0,3.0,681.0,7.0,16.0,0.0,0.0,0.0,1.0,5.0,6.0,0.0,0.0,0.0,0.0,272.0,256.0,3931.145431145431,47.1240720930415,3.7787825487834894,1562.0,PUNGGOL,41.920667046761714,68.81382560879811,0.193484340423484
107 ALJUNIED CRES,4.0,91.33333333333331,1981.0,61.276666666666664,486666.66666666674,2018.666666666667,4.666666666666667,1.3189646529999999,103.8842872,14.42,36.9,50.95000000000001,25.600000000000005,28.55,13.53,25.350000000000005,27.58,13.78,22.27,341.0,0.0,0.0,6.0,58.0,2.0,919.0,4.0,4.0,0.0,0.0,0.0,0.0,1.0,6.0,0.0,0.0,0.0,0.0,270.0,464.0,5327.878643096034,86.9772725517223,25.844519712738773,7798.0,GEYLANG,56.60567349092167,112.03927730253292,0.5478914768741576
107 ANG MO KIO AVE 4,6.363636363636362,81.27272727272727,1978.0,58.77181818181817,320454.5454545455,2018.2727272727273,3.9090909090909087,1.3713840009999998,103.8373814,31.199999999999992,41.62,60.87,27.17000000000001,52.23000000000001,20.88,24.930000000000003,28.67000000000001,17.329999999999995,34.32,1412.0,0.0,0.0,6.0,121.0,1.0,957.0,3.0,7.0,1.0,1.0,1.0,1.0,5.0,10.0,1.0,1.0,2.0,2.0,2166.0,2048.0,3942.9423852304335,67.07354572353717,13.984012224114952,2849.0,ANG MO KIO,48.941092721124754,93.79298471217095,0.40427398260105063
107 BEDOK NTH RD,5.545454545454546,73.18181818181819,1977.0,58.50000000000001,300981.8181818182,2017.6363636363642,5.636363636363638,1.332317407,103.93630129999998,28.300000000000008,51.17000000000001,64.38,39.55,19.22,23.03,30.949999999999992,33.12,19.48,17.050000000000004,590.0,0.0,0.0,6.0,135.0,1.0,942.0,5.0,11.0,0.0,0.0,2.0,4.0,3.0,8.0,0.0,0.0,0.0,0.0,272.0,263.0,4129.055434491668,70.54353160691737,20.319452432812874,6672.0,BEDOK,51.11977742401701,99.51279256079034,0.4013751597829344
107 BEDOK RESERVOIR RD,9.666666666666666,72.77777777777777,1985.0,66.24111111111111,311000.0,2017.888888888889,6.5555555555555545,1.3298702890000005,103.9092204,30.43,52.64999999999999,64.18,46.13,32.98,19.85,27.78,29.95,16.319999999999997,20.65,606.0,0.0,0.0,2.0,192.0,0.0,2019.0,3.0,6.0,0.0,0.0,1.0,1.0,1.0,2.0,0.0,0.0,0.0,0.0,215.0,264.0,4268.567556482818,64.43944505323822,7.576697137401182,6709.0,BEDOK,51.11977742401701,99.51279256079034,0.2752394656868514
107 BISHAN ST 12,6.875,86.625,1985.0,66.12375,516986.0,2018.375,5.125,1.3464176140000002,103.84792070000002,25.15,32.82999999999999,44.72,21.12,45.48,17.349999999999998,21.38,25.12,13.8,30.65,464.0,1.0,1.0,6.0,114.0,2.0,429.0,3.0,10.0,1.0,1.0,1.0,2.0,6.0,8.0,2.0,2.0,3.0,3.0,1070.0,1107.0,5954.297619047618,90.05405488822682,19.44850201540547,5044.0,BISHAN,60.269202437554405,104.71884134318148,0.6700808641867688
107 BT BATOK WEST AVE 6,4.5,106.33333333333331,1985.0,65.0,406333.33333333326,2018.833333333333,5.0,1.3478108849999997,103.7466088,36.73,29.6,8.87,37.72,70.38,26.930000000000003,18.83,4.8,25.03,44.57999999999999,421.0,1.0,0.0,7.0,135.0,1.0,376.0,3.0,9.0,0.0,0.0,0.0,0.0,3.0,7.0,0.0,0.0,0.0,0.0,425.0,412.0,3822.360822360822,58.837136647435635,16.818937895791866,4162.0,BUKIT BATOK,45.388244408445615,75.4522795519283,0.44734155527706954
107 BT PURMEI RD,9.125,80.0,1983.0,63.155,424111.0,2018.5,5.5,1.2731016549999998,103.82450859999996,17.62,28.87,40.48,28.430000000000003,51.27,9.230000000000002,12.8,21.2,12.519999999999998,32.02,864.0,0.0,0.0,6.0,78.0,0.0,1013.0,3.0,7.0,0.0,0.0,0.0,0.0,1.0,3.0,0.0,0.0,0.0,0.0,427.0,427.0,5303.0128390306545,84.06598108136681,10.140716673201037,9613.0,BUKIT MERAH,61.931118440609815,155.90058143249632,0.2355537845594389
107 GANGSA RD,6.5,146.33333333333334,1987.0,67.85833333333333,625000.0,2018.333333333333,6.666666666666668,1.3779846969999998,103.76671469999998,34.32,35.80000000000001,29.28,30.13,62.0,28.98,24.28,14.22,21.62,41.15,545.0,0.0,0.0,7.0,92.0,5.0,342.0,4.0,8.0,0.0,0.0,0.0,1.0,2.0,7.0,0.0,0.0,0.0,0.0,935.0,956.0,4265.429543782193,62.850772462213506,13.007345222047903,3334.0,BUKIT PANJANG,41.18990670299474,70.64784749753744,0.7353150008106337
107 JLN BT MERAH,7.7857142857142865,63.57142857142857,1970.0,50.08357142857143,260992.0,2018.357142857143,8.142857142857142,1.279865976,103.8255259,18.63,31.5,35.64999999999999,26.680000000000003,48.5,9.05,11.379999999999995,19.78,9.78,30.73000000000001,676.0,0.0,0.0,5.0,116.0,1.0,756.0,4.0,9.0,0.0,0.0,0.0,0.0,1.0,5.0,0.0,0.0,0.0,0.0,160.0,139.0,4101.722206253393,81.80554765470956,12.821735585650703,9530.0,BUKIT MERAH,61.931118440609815,155.90058143249632,0.21149880590267645
107 JLN RAJAH,6.2,110.2,1984.0,64.23400000000001,516200.0,2018.8,7.0,1.3278533270000001,103.8549937,23.85,37.5,59.15,19.52,50.38,13.4,21.7,24.25,9.85,30.82,952.0,0.0,0.0,4.0,121.0,1.0,943.0,1.0,9.0,0.0,0.0,0.0,1.0,1.0,5.0,0.0,0.0,0.0,0.0,122.0,106.0,4677.222881888664,72.80450535765348,15.958301673963785,7949.0,KALLANG/WHAMPOA,62.7371318203751,116.18999089089591,0.18834116102183446
107 JURONG EAST ST 13,2.0,162.0,1993.0,72.58,755000.0,2019.0,11.0,1.337754568,103.7380934,31.0,23.88,9.77,33.67,64.65,23.22,15.12,4.08,24.7,44.23,658.0,0.0,0.0,5.0,91.0,2.0,553.0,2.0,5.0,0.0,0.0,0.0,0.0,0.0,7.0,0.0,0.0,0.0,0.0,742.0,724.0,4660.493827160494,64.21181905704732,32.10590952852366,5577.0,JURONG EAST,45.015845577643326,82.06217412908822,0.5181612923598419
107 LOR 1 TOA PAYOH,5.0,67.0,1970.0,49.5,227000.0,2019.0,7.5,1.341233588,103.84729399999999,18.78,30.9,42.78,14.75,42.67,16.87,19.9,22.27,10.17,27.28,99.0,0.0,0.0,7.0,62.0,1.0,646.0,4.0,9.0,0.0,1.0,0.0,2.0,3.0,8.0,1.0,2.0,1.0,3.0,1137.0,1030.0,3388.0597014925374,68.43689203760373,17.370516265048536,7165.0,TOA PAYOH,56.37677727790368,108.7945572173222,0.230076794050386
107 PASIR RIS ST 12,8.0,113.33333333333331,1989.0,69.27833333333334,428850.0,2018.166666666667,7.833333333333332,1.367509667,103.95751889999998,40.3,63.35,73.82,51.6,25.32,31.38,39.78,41.95,27.329999999999995,14.6,1086.0,0.0,0.0,5.0,92.0,1.0,795.0,3.0,8.0,0.0,0.0,0.0,0.0,5.0,8.0,0.0,0.0,0.0,0.0,320.0,337.0,3776.119478044812,54.52480762158578,10.119121741830666,2482.0,PASIR RIS,43.50398179749715,71.55825353538319,0.39283949079332187
107 POTONG PASIR AVE 1,7.625,77.75,1984.0,64.85375,415625.0,2018.125,7.5,1.3347093690000005,103.86841319999998,20.47,41.47,51.03,22.17,44.12,13.37,21.67,24.22,10.230000000000002,25.32,219.0,0.0,0.0,8.0,187.0,1.0,362.0,2.0,11.0,0.0,0.0,0.0,1.0,3.0,9.0,1.0,1.0,1.0,1.0,603.0,590.0,5377.793659043659,82.93506498465072,17.49786743463866,7282.0,TOA PAYOH,56.37677727790368,108.7945572173222,0.5066656340165799
107 RIVERVALE WALK,10.75,105.5,1999.0,79.45833333333334,389125.0,2018.083333333333,7.75,1.3830050130000002,103.9002725,37.63,50.75,68.52,38.64999999999999,45.38,24.98,34.22000000000001,36.37,22.63,23.73,758.0,0.0,0.0,6.0,127.0,1.0,316.0,4.0,15.0,0.0,0.0,0.0,0.0,3.0,9.0,0.0,0.0,0.0,0.0,1201.0,1080.0,3687.143164898909,46.418179847167565,6.8447944696329595,2061.0,SENGKANG,41.178724969218116,67.75428524303348,0.19715312956588282
107 SERANGOON NTH AVE 1,8.75,62.5,1984.0,64.71416666666667,270250.0,2018.416666666667,7.583333333333332,1.3699004039999998,103.87022490000004,35.98000000000001,46.98000000000001,67.41999999999999,31.949999999999992,54.57000000000002,19.430000000000003,27.73,31.22000000000001,15.900000000000004,31.52999999999999,1933.0,0.0,0.0,4.0,154.0,1.0,781.0,1.0,6.0,0.0,0.0,1.0,1.0,2.0,5.0,0.0,0.0,0.0,0.0,924.0,813.0,4330.952380952381,66.89431080629498,12.782386290489919,3076.0,SERANGOON,48.00287255069534,95.38608760737254,0.39869473257571775
107 SIMEI ST 1,5.25,109.0,1988.0,69.36083333333333,486583.33333333326,2018.083333333333,5.75,1.34216114,103.95048990000002,32.32999999999999,55.47000000000002,66.08000000000001,41.22000000000001,16.53,25.52,33.43,35.60000000000001,21.97,16.349999999999998,374.0,0.0,0.0,4.0,82.0,1.0,291.0,3.0,10.0,0.0,0.0,0.0,1.0,1.0,9.0,0.0,0.0,0.0,0.0,173.0,165.0,4476.698783627575,64.52066517690645,17.126938817795374,4580.0,TAMPINES,45.923453241354,83.46135467326172,0.49542492324156856
